"subject_id","new_key","lakename","county","begin_date_day","begin_date_month","begin_date_year","development","do_below_thermo_ppm","lake_area_ha","max_depth_min_m","temp_surface_min_c","LAT_DD","LONG_DD","url_front","url_back"
58643103,"1-165","HUBBARD","ALCONA",NA,"August",1925,NA,NA,NA,NA,NA,44.80416,-83.55954,"https://changes-ifr.s3.us-east-2.amazonaws.com/ss1/SUMM/single/Alcona_Hubbard_SUMM_Doc1180.jpg",NA
58643104,"1-165","HUBBARD","ALCONA",NA,"April",1926,NA,NA,NA,NA,NA,44.80416,-83.55954,"https://changes-ifr.s3.us-east-2.amazonaws.com/ss1/SUMM/single/Alcona_Hubbard_SUMM_Doc1183.jpg",NA
58643105,"40-244","BASS","KALKASKA",29,"July",1930,NA,NA,NA,NA,NA,44.80211,-84.88414,"https://changes-ifr.s3.us-east-2.amazonaws.com/ss1/SUMM/single/Kalkaska_Bass28N_5W_S23_SUMM_005.jpg",NA
58643107,"4-1","BEAVER","ALPENA",NA,"April",1926,NA,NA,NA,NA,NA,44.93777,-83.79899,"https://changes-ifr.s3.us-east-2.amazonaws.com/ss1/SUMM/single/Alpena_Beaver_SUMM_20200219151000777_0003.jpg",NA
58643108,"40-104","BEAR","KALKASKA",15,"February",1926,NA,NA,NA,NA,NA,44.72916,-84.94399,"https://changes-ifr.s3.us-east-2.amazonaws.com/ss1/SUMM/single/Kalkaska_Bear_SUMM_024.jpg",NA
58643109,"40-102","BLACKMIDDLE","KALKASKA",5,"August",1930,NA,NA,NA,NA,NA,44.72916,-84.92593,"https://changes-ifr.s3.us-east-2.amazonaws.com/ss1/SUMM/single/Kalkaska_BlackMiddle_SUMM_002.jpg",NA
58643110,"40-104","BEAR","KALKASKA",7,"August",1930,NA,NA,NA,NA,NA,44.72916,-84.94399,"https://changes-ifr.s3.us-east-2.amazonaws.com/ss1/SUMM/single/Kalkaska_Bear_SUMM_025.jpg",NA
58643111,"40-103","BLACKUPPER","KALKASKA",9,"August",1930,NA,NA,NA,NA,NA,44.73499,-84.92343,"https://changes-ifr.s3.us-east-2.amazonaws.com/ss1/SUMM/single/Kalkaska_BlackUpper_SUMM_002.jpg",NA
58643112,"40-110","BLACKSOUTH","KALKASKA",2,"August",1930,NA,NA,NA,NA,NA,44.72082,-84.92482,"https://changes-ifr.s3.us-east-2.amazonaws.com/ss1/SUMM/single/Kalkaska_BlackSouth_SUMM_001.jpg",NA
58643113,"40-247","BLUELITTLE","KALKASKA",28,"July",1930,NA,NA,NA,NA,NA,44.8011,-84.89426,"https://changes-ifr.s3.us-east-2.amazonaws.com/ss1/SUMM/single/Kalkaska_BlueLittle_SUMM_004.jpg",NA
58643114,"40-158","BLUE","KALKASKA",12,"August",1930,NA,NA,NA,NA,NA,44.74638,-85.15843,"https://changes-ifr.s3.us-east-2.amazonaws.com/ss1/SUMM/single/Kalkaska_Blue_SUMM_007.jpg",NA
58643116,"40-216","BLUENORTH","KALKASKA",28,"July",1930,NA,NA,NA,NA,NA,44.81666,-84.89649,"https://changes-ifr.s3.us-east-2.amazonaws.com/ss1/SUMM/single/Kalkaska_BlueNorth_SUMM_002.jpg",NA
58643117,"40-203","CROOKED","KALKASKA",29,"July",1930,NA,NA,NA,NA,NA,44.85036,-84.90764,"https://changes-ifr.s3.us-east-2.amazonaws.com/ss1/SUMM/single/Kalkaska_Crooked_SUMM_005.jpg",NA
58643118,"40-27","CRANBERRY","KALKASKA",5,"August",1930,NA,NA,NA,NA,NA,44.68082,-84.96732,"https://changes-ifr.s3.us-east-2.amazonaws.com/ss1/SUMM/single/Kalkaska_Cranberry_SUMM_002.jpg",NA
58643119,"40-307","CROYNORTH","KALKASKA",24,"August",1930,NA,NA,NA,NA,NA,44.81471,-85.09343,"https://changes-ifr.s3.us-east-2.amazonaws.com/ss1/SUMM/single/Kalkaska_CroyNorth_SUMM_004.jpg",NA
58643120,"40-209","EAGLE","KALKASKA",21,"July",1930,NA,NA,NA,NA,NA,44.83582,-84.94621,"https://changes-ifr.s3.us-east-2.amazonaws.com/ss1/SUMM/single/Kalkaska_Eagle_SUMM_006.jpg",NA
58643121,"40-188","DARBY","KALKASKA",27,"August",1930,NA,NA,NA,NA,NA,44.7236,-85.31399,"https://changes-ifr.s3.us-east-2.amazonaws.com/ss1/SUMM/single/Kalkaska_Darby_SUMM_003.jpg",NA
58643122,"40-61","EAST","KALKASKA",2,"September",1930,NA,NA,NA,NA,NA,44.63665,-85.15621,"https://changes-ifr.s3.us-east-2.amazonaws.com/ss1/SUMM/single/Kalkaska_East26N_7W_S21-22_SUMM_002.jpg",NA
58643123,"40-96","EAST","KALKASKA",3,"August",1930,NA,NA,NA,NA,NA,44.75943,-84.95399,"https://changes-ifr.s3.us-east-2.amazonaws.com/ss1/SUMM/single/Kalkaska_East27N_5W_S6_SUMM_004.jpg",NA
58643124,"40-127","FIVELAKE","KALKASKA",4,"July",1930,NA,NA,NA,NA,NA,44.76471,-85.06093,"https://changes-ifr.s3.us-east-2.amazonaws.com/ss1/SUMM/single/Kalkaska_FiveLake_SUMM_002.jpg",NA
58643125,"40-116","GRASS","KALKASKA",5,"July",1930,NA,NA,NA,NA,NA,44.7561,-85.00426,"https://changes-ifr.s3.us-east-2.amazonaws.com/ss1/SUMM/single/Kalkaska_Grass_SUMM_009.jpg",NA
58643126,"40-192","GUERNSEYBIG","KALKASKA",29,"August",1930,NA,NA,NA,NA,NA,44.7111,-85.32704,"https://changes-ifr.s3.us-east-2.amazonaws.com/ss1/SUMM/single/Kalkaska_GuernseyBig_SUMM_014.jpg",NA
58643127,"40-199","GUERNSEYLITTLESOUTH","KALKASKA",29,"August",1930,NA,NA,NA,NA,NA,44.71082,-85.31954,"https://changes-ifr.s3.us-east-2.amazonaws.com/ss1/SUMM/single/Kalkaska_GuernseyLittleSouth_SUMM_002.jpg",NA
58643128,"40-189","GUERNSEYLITTLENORTH","KALKASKA",27,"August",1930,NA,NA,NA,NA,NA,44.71404,-85.31835,"https://changes-ifr.s3.us-east-2.amazonaws.com/ss1/SUMM/single/Kalkaska_GuernseyLittleNorth_SUMM_004.jpg",NA
58643129,"40-175","HAYNES","KALKASKA",26,"August",1930,NA,NA,NA,NA,NA,44.75489,-85.32042,"https://changes-ifr.s3.us-east-2.amazonaws.com/ss1/SUMM/single/Kalkaska_Haynes_SUMM_003.jpg",NA
58643130,"40-19","INGERSOLL","KALKASKA",9,"September",1930,NA,NA,NA,NA,NA,44.56804,-85.2276,"https://changes-ifr.s3.us-east-2.amazonaws.com/ss1/SUMM/single/Kalkaska_Ingersoll_SUMM_004.jpg",NA
58643131,"40-187","ISLAND","KALKASKA",25,"August",1930,NA,NA,NA,NA,NA,44.7261,-85.29149,"https://changes-ifr.s3.us-east-2.amazonaws.com/ss1/SUMM/single/Kalkaska_Island_SUMM_003.jpg",NA
58643132,"40-236","INDIAN","KALKASKA",17,"July",1930,NA,NA,NA,NA,NA,44.80769,-84.93051,"https://changes-ifr.s3.us-east-2.amazonaws.com/ss1/SUMM/single/Kalkaska_Indian_SUMM_004.jpg",NA
58643133,"40-112","JOHNSON","KALKASKA",4,"August",1930,NA,NA,NA,NA,NA,44.69221,-84.95093,"https://changes-ifr.s3.us-east-2.amazonaws.com/ss1/SUMM/single/Kalkaska_Johnson_SUMM_004.jpg",NA
58643134,NA,"KALKASKAMILLPOND","KALKASKA",19,"August",1930,NA,NA,NA,NA,NA,NA,NA,"https://changes-ifr.s3.us-east-2.amazonaws.com/ss1/SUMM/single/Kalkaska_KalkaskaMillPond_SUMM_004.jpg",NA
58643135,"40-167","KETTLE","KALKASKA",30,"June",1930,NA,NA,NA,NA,NA,44.72888,-85.14176,"https://changes-ifr.s3.us-east-2.amazonaws.com/ss1/SUMM/single/Kalkaska_Kettle_SUMM_011.jpg",NA
58643136,"40-160","LOGLITTLE","KALKASKA",11,"August",1930,NA,NA,NA,NA,NA,44.74554,-85.14343,"https://changes-ifr.s3.us-east-2.amazonaws.com/ss1/SUMM/single/Kalkaska_LogLittle_SUMM_004.jpg",NA
58643137,"40-167","KETTLE","KALKASKA",18,"August",1930,NA,NA,NA,NA,NA,44.72888,-85.14176,"https://changes-ifr.s3.us-east-2.amazonaws.com/ss1/SUMM/single/Kalkaska_Kettle_SUMM_006.jpg",NA
58643138,"40-47","LOON","KALKASKA",3,"September",1930,NA,NA,NA,NA,NA,44.67527,-85.2076,"https://changes-ifr.s3.us-east-2.amazonaws.com/ss1/SUMM/single/Kalkaska_Loon_SUMM_003.jpg",NA
58643139,"40-16","LONG","KALKASKA",9,"September",1930,NA,NA,NA,NA,NA,44.57193,-85.29871,"https://changes-ifr.s3.us-east-2.amazonaws.com/ss1/SUMM/single/Kalkaska_Long_SUMM_004.jpg",NA
58643140,"40-123","LOST","KALKASKA",5,"July",1930,NA,NA,NA,NA,NA,44.76388,-85.03621,"https://changes-ifr.s3.us-east-2.amazonaws.com/ss1/SUMM/single/Kalkaska_Lost_SUMM_002.jpg",NA
58643141,"40-105","MALLARD","KALKASKA",5,"August",1930,NA,NA,NA,NA,NA,44.73416,-84.95482,"https://changes-ifr.s3.us-east-2.amazonaws.com/ss1/SUMM/single/Kalkaska_Mallard_SUMM_003.jpg",NA
58643142,"40-211","MACNEILPOND","KALKASKA",20,"July",1930,NA,NA,NA,NA,NA,44.83999,-84.93815,"https://changes-ifr.s3.us-east-2.amazonaws.com/ss1/SUMM/single/Kalkaska_MacNeilPond_SUMM_001.jpg",NA
58643143,"40-237","PAPOOSE","KALKASKA",17,"July",1930,NA,NA,NA,NA,NA,44.79916,-84.9326,"https://changes-ifr.s3.us-east-2.amazonaws.com/ss1/SUMM/single/Kalkaska_Papoose_SUMM_003.jpg",NA
58643145,"40-295","PICKEREL","KALKASKA",13,"July",1930,NA,NA,NA,NA,NA,44.80027,-84.97732,"https://changes-ifr.s3.us-east-2.amazonaws.com/ss1/SUMM/single/Kalkaska_Pickerel_SUMM_009.jpg",NA
58643146,"40-133","POST","KALKASKA",2,"July",1930,NA,NA,NA,NA,NA,44.75166,-85.0151,"https://changes-ifr.s3.us-east-2.amazonaws.com/ss1/SUMM/single/Kalkaska_Post_SUMM_004.jpg",NA
58643147,"40-137","PERCH","KALKASKA",NA,NA,1930,NA,NA,NA,NA,NA,44.7536,-85.02287,"https://changes-ifr.s3.us-east-2.amazonaws.com/ss1/SUMM/single/Kalkaska_Perch_SUMM_003.jpg",NA
58643148,"40-162","PLACIDLAKE","KALKASKA",14,"August",1930,NA,NA,NA,NA,NA,44.73999,-85.10343,"https://changes-ifr.s3.us-east-2.amazonaws.com/ss1/SUMM/single/Kalkaska_PlacidLake_SUMM_001.jpg",NA
58643149,"40-57","PRICE","KALKASKA",4,"September",1930,NA,NA,NA,NA,NA,44.62971,-85.17343,"https://changes-ifr.s3.us-east-2.amazonaws.com/ss1/SUMM/single/Kalkaska_Price_SUMM_002.jpg",NA
58643150,"40-164","SELKIRKNORTH","KALKASKA",16,"August",1930,NA,NA,NA,NA,NA,44.73638,-85.12287,"https://changes-ifr.s3.us-east-2.amazonaws.com/ss1/SUMM/single/Kalkaska_SelkirkNorth_SUMM_003.jpg",NA
58643151,"40-21","SICKLE","KALKASKA",9,"November",1930,NA,NA,NA,NA,NA,44.55721,-85.24093,"https://changes-ifr.s3.us-east-2.amazonaws.com/ss1/SUMM/single/Kalkaska_Sickle_SUMM_002.jpg",NA
58643152,"40-165","SELKIRKSOUTH","KALKASKA",17,"August",1930,NA,NA,NA,NA,NA,44.73054,-85.12704,"https://changes-ifr.s3.us-east-2.amazonaws.com/ss1/SUMM/single/Kalkaska_SelkirkSouth_SUMM_004.jpg",NA
58643153,"40-174","SMITH","KALKASKA",24,"August",1930,NA,NA,NA,NA,NA,44.76499,-85.32704,"https://changes-ifr.s3.us-east-2.amazonaws.com/ss1/SUMM/single/Kalkaska_Smith27N_8W_S13_SUMM_002.jpg",NA
58643154,"40-174","SMITHS","KALKASKA",26,"August",1930,NA,NA,NA,NA,NA,44.76499,-85.32704,"https://changes-ifr.s3.us-east-2.amazonaws.com/ss1/SUMM/single/Kalkaska_Smiths27N_8W_S6_SUMM_007.jpg",NA
58643155,"40-240","SQUAW","KALKASKA",18,"July",1930,NA,NA,NA,NA,NA,44.80527,-84.91732,"https://changes-ifr.s3.us-east-2.amazonaws.com/ss1/SUMM/single/Kalkaska_Squaw_SUMM_002.jpg",NA
58643156,"40-212","WADDELLSPOND","KALKASKA",20,"July",1930,NA,NA,NA,NA,NA,44.83916,-84.94176,"https://changes-ifr.s3.us-east-2.amazonaws.com/ss1/SUMM/single/Kalkaska_WaddellsPond_SUMM_001.jpg",NA
58643157,"40-278","TIMBER","KALKASKA",11,"July",1930,NA,NA,NA,NA,NA,44.8286,-84.99149,"https://changes-ifr.s3.us-east-2.amazonaws.com/ss1/SUMM/single/Kalkaska_Timber_SUMM_008.jpg",NA
58643158,"40-223","TWINLITTLE","KALKASKA",12,"July",1930,NA,NA,NA,NA,NA,44.81693,-84.9701,"https://changes-ifr.s3.us-east-2.amazonaws.com/ss1/SUMM/single/Kalkaska_TwinLittle28N_5-6W_S-many_SUMM_006.jpg",NA
58643160,NA,"WELLMANPOND","KALKASKA",9,"September",1930,NA,NA,NA,NA,NA,NA,NA,"https://changes-ifr.s3.us-east-2.amazonaws.com/ss1/SUMM/single/Kalkaska_WellmanPond_SUMM_007.jpg",NA
58643161,"40-311","WHEELER","KALKASKA",21,"August",1930,NA,NA,NA,NA,NA,44.79221,-85.10399,"https://changes-ifr.s3.us-east-2.amazonaws.com/ss1/SUMM/single/Kalkaska_Wheeler_SUMM_003.jpg",NA
58643170,"62-358","NICHOLS","NEWAYGO",NA,NA,1926,NA,NA,NA,NA,NA,43.72638,-85.90621,"https://changes-ifr.s3.us-east-2.amazonaws.com/ss1/SUMM/single/Newaygo_Nichols_SUMM_20191204135518670_0003.jpg",NA
58643172,"42-66","MANGANESE","KEWEENAW",10,"August",1938,NA,NA,NA,NA,NA,47.45471,-87.88316,"https://changes-ifr.s3.us-east-2.amazonaws.com/ss1/SUMM/single/Keweenaw_Manganese_SUMM_20200313164925647_0002 2.jpeg",NA
58643173,"81-147","CROOKED","WASHTENAW",12,"October",1930,NA,NA,NA,NA,NA,42.32527,-84.11287,"https://changes-ifr.s3.us-east-2.amazonaws.com/ss1/SUMM/single/Washtenaw_Crooked2_SUMM_20200218130751801_0011.jpg",NA
58686522,NA,"WHITEMORE","LIVINGSTON",9,"August",1890,NA,NA,NA,NA,NA,NA,NA,"https://changes-ifr.s3.us-east-2.amazonaws.com/ss1/EXAM/double/a_first/Livingston_47-153_1890_SUMM_001_01.jpg","https://changes-ifr.s3.us-east-2.amazonaws.com/ss1/EXAM/double/a_first/Livingston_47-153_1890_SUMM_001_02.jpg"
58687243,"1-138","CROOKED","ALCONA",14,"September",1949,NA,NA,36.22,8.534,17.4,44.73555,-83.86954,"https://changes-ifr.s3.us-east-2.amazonaws.com/ss1/SUMM/double/a_first/Alcona_Crooked_SUMM_20200115135113000_0001.jpg","https://changes-ifr.s3.us-east-2.amazonaws.com/ss1/SUMM/double/a_first/Alcona_Crooked_SUMM_20200115135113000_0002.jpg"
58687244,"1-99","JEWELL","ALCONA",19,"July",1937,"few cottages for rent, in barton city, grocery store, gas station, tavern.",3.9,78.146,6.096,21.667,44.68055,-83.60676,"https://changes-ifr.s3.us-east-2.amazonaws.com/ss1/SUMM/double/a_first/Alcona_Jewell_SUMM_20200129142627943_0001.jpg","https://changes-ifr.s3.us-east-2.amazonaws.com/ss1/SUMM/double/a_first/Alcona_Jewell_SUMM_20200129142627943_0002.jpg"
58687245,"1-165","HUBBARD","ALCONA",26,"August",1942,NA,1.5,3581.546,26.516,20.056,44.80416,-83.55954,"https://changes-ifr.s3.us-east-2.amazonaws.com/ss1/SUMM/double/a_first/Alcona_Hubbard_SUMM_Doc0816.jpg","https://changes-ifr.s3.us-east-2.amazonaws.com/ss1/SUMM/double/a_first/Alcona_Hubbard_SUMM_Doc0817.jpg"
58687247,"1-83","CLEAR","ALCONA",19,"July",1937,"none",NA,4.553,2.438,22.778,44.62519,-83.74735,"https://changes-ifr.s3.us-east-2.amazonaws.com/ss1/SUMM/double/a_first/Alcona_Clear_SUMM_20191125105850178_0001.jpg","https://changes-ifr.s3.us-east-2.amazonaws.com/ss1/SUMM/double/a_first/Alcona_Clear_SUMM_20191125105850178_0002.jpg"
58687248,"1-165","HUBBARD","ALCONA",26,"August",1942,NA,1.5,3581.546,26.516,20.056,44.80416,-83.55954,"https://changes-ifr.s3.us-east-2.amazonaws.com/ss1/SUMM/double/a_first/Alcona_Hubbard_SUMM_20200129141656326_0001.jpg","https://changes-ifr.s3.us-east-2.amazonaws.com/ss1/SUMM/double/a_first/Alcona_Hubbard_SUMM_20200129141656326_0002.jpg"
58687249,"1-16","NORTH","ALCONA",6,"September",1949,NA,NA,36.625,28.04,19.6,44.57055,-83.69899,"https://changes-ifr.s3.us-east-2.amazonaws.com/ss1/SUMM/double/a_first/Alcona_North_SUMM_20200129143705919_0001.jpg","https://changes-ifr.s3.us-east-2.amazonaws.com/ss1/SUMM/double/a_first/Alcona_North_SUMM_20200129143705919_0002.jpg"
58687250,"1-29","VAUGHN","ALCONA",9,"September",1949,NA,NA,46.54,19.811,18.3,44.53916,-83.7276,"https://changes-ifr.s3.us-east-2.amazonaws.com/ss1/SUMM/double/a_first/Alcona_Vaughn_SUMM_20200129151605368_0001.jpg","https://changes-ifr.s3.us-east-2.amazonaws.com/ss1/SUMM/double/a_first/Alcona_Vaughn_SUMM_20200129151605368_0002.jpg"
58687251,"1-29","VAUGHN","ALCONA",22,"July",1937,NA,0.1,48.563,21.03,23.333,44.53916,-83.7276,"https://changes-ifr.s3.us-east-2.amazonaws.com/ss1/SUMM/double/a_first/Alcona_Vaughn_SUMM_20200129152856338_0005.jpg","https://changes-ifr.s3.us-east-2.amazonaws.com/ss1/SUMM/double/a_first/Alcona_Vaughn_SUMM_20200129152856338_0006.jpg"
58687252,"2-95","COOK","ALGER",17,"June",1963,NA,NA,50.83,5.181,NA,46.24721,-86.78232,"https://changes-ifr.s3.us-east-2.amazonaws.com/ss1/SUMM/double/a_first/Alger_Cook_SUMM_20200130135115726_0001.jpg","https://changes-ifr.s3.us-east-2.amazonaws.com/ss1/SUMM/double/a_first/Alger_Cook_SUMM_20200130135115726_0002.jpg"
58687253,"2-720","BEAVER","ALGER",22,"June",1953,NA,NA,309.591,11.887,17.222,46.56832,-86.33871,"https://changes-ifr.s3.us-east-2.amazonaws.com/ss1/SUMM/double/a_first/Alger_Beaver_SUMM_20200129155440605_0001.jpg","https://changes-ifr.s3.us-east-2.amazonaws.com/ss1/SUMM/double/a_first/Alger_Beaver_SUMM_20200129155440605_0002.jpg"
58687254,"2-95","COOK","ALGER",7,"July",1949,NA,NA,50.587,6.096,22.222,46.24721,-86.78232,"https://changes-ifr.s3.us-east-2.amazonaws.com/ss1/SUMM/double/a_first/Alger_Cook_SUMM_20200130135115726_0003.jpg","https://changes-ifr.s3.us-east-2.amazonaws.com/ss1/SUMM/double/a_first/Alger_Cook_SUMM_20200130135115726_0004.jpg"
58687255,"2-461","DEER","ALGER",8,"August",1977,NA,NA,98.341,21.335,20,46.47749,-86.96732,"https://changes-ifr.s3.us-east-2.amazonaws.com/ss1/SUMM/double/a_first/Alger_Deer_SUMM_20200130140509982_0001.jpg","https://changes-ifr.s3.us-east-2.amazonaws.com/ss1/SUMM/double/a_first/Alger_Deer_SUMM_20200130140509982_0002.jpg"
58687256,"2-461","DEER","ALGER",20,"August",1948,NA,1.9,98.341,21.945,21.8,46.47749,-86.96732,"https://changes-ifr.s3.us-east-2.amazonaws.com/ss1/SUMM/double/a_first/Alger_Deer_SUMM_20200130140457447_0001.jpg","https://changes-ifr.s3.us-east-2.amazonaws.com/ss1/SUMM/double/a_first/Alger_Deer_SUMM_20200130140457447_0002.jpg"
58687257,"2-212","READY","ALGER",26,"June",1963,NA,NA,26.71,2.438,23.889,46.26276,-86.71121,"https://changes-ifr.s3.us-east-2.amazonaws.com/ss1/SUMM/double/a_first/Alger_Ready_SUMM_20200219122908529_0001.jpg","https://changes-ifr.s3.us-east-2.amazonaws.com/ss1/SUMM/double/a_first/Alger_Ready_SUMM_20200219122908529_0002.jpg"
58687258,"3-153","DUMONT","ALLEGAN",21,"July",1937,NA,NA,87.009,15.544,26.1,42.59249,-85.86454,"https://changes-ifr.s3.us-east-2.amazonaws.com/ss1/SUMM/double/a_first/Allegan_Dumont_SUMM_20200219142223236_0001.jpg","https://changes-ifr.s3.us-east-2.amazonaws.com/ss1/SUMM/double/a_first/Allegan_Dumont_SUMM_20200219142223236_0002.jpg"
58687259,"2-627","KINGSTON","ALGER",29,"August",1955,NA,NA,101.174,9.753,16.667,46.58221,-86.2201,"https://changes-ifr.s3.us-east-2.amazonaws.com/ss1/SUMM/double/a_first/Alger_Kingston_SUMM_20200219122455196_0013.jpg","https://changes-ifr.s3.us-east-2.amazonaws.com/ss1/SUMM/double/a_first/Alger_Kingston_SUMM_20200219122455196_0014.jpg"
58687260,"2-32","IRWIN","ALGER",13,"July",1950,NA,NA,4.047,12.191,21.667,46.21971,-86.62621,"https://changes-ifr.s3.us-east-2.amazonaws.com/ss1/SUMM/double/a_first/Alger_Irwin_SUMM_20200219115354867_0001.jpg","https://changes-ifr.s3.us-east-2.amazonaws.com/ss1/SUMM/double/a_first/Alger_Irwin_SUMM_20200219115354867_0002.jpg"
58687261,"2-775","GRANDSABLE","ALGER",12,"July",1949,NA,6.7,253.946,25.907,21.667,46.63832,-86.03871,"https://changes-ifr.s3.us-east-2.amazonaws.com/ss1/SUMM/double/a_first/Alger_GrandSable_SUMM_20200130144543948_0001.jpg","https://changes-ifr.s3.us-east-2.amazonaws.com/ss1/SUMM/double/a_first/Alger_GrandSable_SUMM_20200130144543948_0002.jpg"
58687262,"2-104","TROUT","ALGER",26,"June",1949,NA,NA,60.704,2.133,21.111,46.23418,-86.85877,"https://changes-ifr.s3.us-east-2.amazonaws.com/ss1/SUMM/double/a_first/Alger_Trout_SUMM_20200219123445480_0001.jpg","https://changes-ifr.s3.us-east-2.amazonaws.com/ss1/SUMM/double/a_first/Alger_Trout_SUMM_20200219123445480_0002.jpg"
58687263,"3-153","DUMONT","ALLEGAN",21,"July",1937,NA,0,87.009,15.544,26.1,42.59249,-85.86454,"https://changes-ifr.s3.us-east-2.amazonaws.com/ss1/SUMM/double/a_first/Allegan_Dumont_SUMM_20200219142750524_0001.jpg","https://changes-ifr.s3.us-east-2.amazonaws.com/ss1/SUMM/double/a_first/Allegan_Dumont_SUMM_20200219142750524_0002.jpg"
58687264,"3-71","OSTERHAUT","ALLEGAN",25,"August",1954,NA,NA,60.704,5.181,NA,42.43499,-86.04009,"https://changes-ifr.s3.us-east-2.amazonaws.com/ss1/SUMM/double/a_first/Allegan_Osterhaut_SUMM_20200219140457487_0001.jpg","https://changes-ifr.s3.us-east-2.amazonaws.com/ss1/SUMM/double/a_first/Allegan_Osterhaut_SUMM_20200219140457487_0002.jpg"
58687265,"4-1","BEAVER","ALPENA",16,"August",1950,NA,0.9,269.122,23.468,21.667,44.93777,-83.79899,"https://changes-ifr.s3.us-east-2.amazonaws.com/ss1/SUMM/double/a_first/Alpena_Beaver_SUMM_20200219145953082_0001.jpg","https://changes-ifr.s3.us-east-2.amazonaws.com/ss1/SUMM/double/a_first/Alpena_Beaver_SUMM_20200219145953082_0002.jpg"
58687266,"4-16","FOURMILEIMPOUNDMENT","ALPENA",26,"July",1950,"5",NA,39.458,6.705,20,45.09305,-83.50301,"https://changes-ifr.s3.us-east-2.amazonaws.com/ss1/SUMM/double/a_first/Alpena_FourMileImpoundment_SUMM_20200219151735462_0001.jpg","https://changes-ifr.s3.us-east-2.amazonaws.com/ss1/SUMM/double/a_first/Alpena_FourMileImpoundment_SUMM_20200219151735462_0002.jpg"
58687267,"7-6","SPRUCE","BALAGA",12,"August",1937,NA,NA,25.577,10.972,NA,46.50693,-88.17677,"https://changes-ifr.s3.us-east-2.amazonaws.com/ss1/SUMM/double/a_first/Balaga_Spruce_SUMM_20191125110234818_0001.jpg","https://changes-ifr.s3.us-east-2.amazonaws.com/ss1/SUMM/double/a_first/Balaga_Spruce_SUMM_20191125110234818_0002.jpg"
58687268,"4-1","BEAVER","ALPENA",NA,"April",1926,NA,NA,NA,NA,NA,44.93777,-83.79899,"https://changes-ifr.s3.us-east-2.amazonaws.com/ss1/SUMM/double/a_first/Alpena_Beaver_SUMM_20200219151000777_0001.jpg","https://changes-ifr.s3.us-east-2.amazonaws.com/ss1/SUMM/double/a_first/Alpena_Beaver_SUMM_20200219151000777_0002.jpg"
58687269,"8-613","MCDONALD","BARRY",4,"August",1936,NA,NA,6.799,3.048,25.3,42.63332,-85.49065,"https://changes-ifr.s3.us-east-2.amazonaws.com/ss1/SUMM/double/a_first/Barry_McDonald_SUMM_20191125111429749_0001.jpg","https://changes-ifr.s3.us-east-2.amazonaws.com/ss1/SUMM/double/a_first/Barry_McDonald_SUMM_20191125111429749_0002.jpg"
58687270,"8-619","DEEP","BARRY",7,"August",1936,NA,NA,13.112,10.667,26.1,42.62082,-85.45843,"https://changes-ifr.s3.us-east-2.amazonaws.com/ss1/SUMM/double/a_first/Barry_Deep_SUMM_001_01.jpg","https://changes-ifr.s3.us-east-2.amazonaws.com/ss1/SUMM/double/a_first/Barry_Deep_SUMM_001_02.jpg"
58687271,"15-70","BARNEYS","CHARLEVOIX",4,"August",1942,NA,NA,16.188,4.572,22.6,45.71221,-85.55815,"https://changes-ifr.s3.us-east-2.amazonaws.com/ss1/SUMM/double/a_first/Charlevoix_Barneys_2.jpeg","https://changes-ifr.s3.us-east-2.amazonaws.com/ss1/SUMM/double/a_first/Charlevoix_Barneys_2p2.jpeg"
58687272,"15-70","BARNEYS","CHARLEVOIX",30,"June",1960,NA,NA,18.211,3.657,20.556,45.71221,-85.55815,"https://changes-ifr.s3.us-east-2.amazonaws.com/ss1/SUMM/double/a_first/Charlevoix_Barneys_3.jpeg","https://changes-ifr.s3.us-east-2.amazonaws.com/ss1/SUMM/double/a_first/Charlevoix_Barneys_3p2.jpeg"
58687273,"15-70","BARNEYS","CHARLEVOIX",30,"June",1960,NA,NA,18.211,3.657,20.556,45.71221,-85.55815,"https://changes-ifr.s3.us-east-2.amazonaws.com/ss1/SUMM/double/a_first/Charlevoix_Barneys_SUMM_3.jpg","https://changes-ifr.s3.us-east-2.amazonaws.com/ss1/SUMM/double/a_first/Charlevoix_Barneys_SUMM_3p2.jpg"
58687274,"15-70","BARNEYS","CHARLEVOIX",4,"August",1942,NA,NA,16.188,4.572,22.6,45.71221,-85.55815,"https://changes-ifr.s3.us-east-2.amazonaws.com/ss1/SUMM/double/a_first/Charlevoix_Barneys_SUMM_2.jpg","https://changes-ifr.s3.us-east-2.amazonaws.com/ss1/SUMM/double/a_first/Charlevoix_Barneys_SUMM_2p2.jpg"
58687275,"15-2","BOOTH","CHARLEVOIX",6,"August",1937,NA,6.2,13.153,10.363,23.7,45.19908,-84.73541,"https://changes-ifr.s3.us-east-2.amazonaws.com/ss1/SUMM/double/a_first/Charlevoix_Booth_2.jpeg","https://changes-ifr.s3.us-east-2.amazonaws.com/ss1/SUMM/double/a_first/Charlevoix_Booth_2p2.jpeg"
58687276,"15-2","BOOTH","CHARLEVOIX",6,"August",1937,NA,6.2,13.153,10.363,23.7,45.19908,-84.73541,"https://changes-ifr.s3.us-east-2.amazonaws.com/ss1/SUMM/double/a_first/Charlevoix_Booth_SUMM_2.jpg","https://changes-ifr.s3.us-east-2.amazonaws.com/ss1/SUMM/double/a_first/Charlevoix_Booth_SUMM_2p2.jpg"
58687277,"15-15","DEER","CHARLEVOIX",21,"August",1950,NA,NA,179.28,6.705,16.667,45.16832,-84.9776,"https://changes-ifr.s3.us-east-2.amazonaws.com/ss1/SUMM/double/a_first/Charlevoix_Deer_002_SUMM_0001.jpg","https://changes-ifr.s3.us-east-2.amazonaws.com/ss1/SUMM/double/a_first/Charlevoix_Deer_002_SUMM_0002.jpg"
58687278,"15-72","FOX","CHARLEVOIX",5,"August",1942,NA,NA,60.704,5.486,23.4,45.65165,-85.56676,"https://changes-ifr.s3.us-east-2.amazonaws.com/ss1/SUMM/double/a_first/Charlevoix_Fox_022_SUMM_0001.jpg","https://changes-ifr.s3.us-east-2.amazonaws.com/ss1/SUMM/double/a_first/Charlevoix_Fox_022_SUMM_0002.jpg"
58687279,"15-76","FONT","CHARLEVOIX",7,"August",1942,NA,NA,202.347,2.133,22.9,45.7386,-85.54288,"https://changes-ifr.s3.us-east-2.amazonaws.com/ss1/SUMM/double/a_first/Charlevoix_Font_002_SUMM_0001.jpg","https://changes-ifr.s3.us-east-2.amazonaws.com/ss1/SUMM/double/a_first/Charlevoix_Font_002_SUMM_0002.jpg"
58687280,"15-76","FONT","CHARLEVOIX",4,"July",1960,NA,NA,154.593,2.438,18.333,45.7386,-85.54288,"https://changes-ifr.s3.us-east-2.amazonaws.com/ss1/SUMM/double/a_first/Charlevoix_Font_003_SUMM_0001.jpg","https://changes-ifr.s3.us-east-2.amazonaws.com/ss1/SUMM/double/a_first/Charlevoix_Font_003_SUMM_0002.jpg"
58687281,"15-66","GENESERATH","CHARLEVOIX",28,"June",1960,NA,NA,197.896,15.239,20,45.59804,-85.53899,"https://changes-ifr.s3.us-east-2.amazonaws.com/ss1/SUMM/double/a_first/Charlevoix_Geneserath_012_SUMM_0001.jpg","https://changes-ifr.s3.us-east-2.amazonaws.com/ss1/SUMM/double/a_first/Charlevoix_Geneserath_012_SUMM_0002.jpg"
58687282,"15-72","FOX","CHARLEVOIX",29,"June",1960,NA,NA,30.352,5.791,21.111,45.65165,-85.56676,"https://changes-ifr.s3.us-east-2.amazonaws.com/ss1/SUMM/double/a_first/Charlevoix_Fox_023_SUMM_0001.jpg","https://changes-ifr.s3.us-east-2.amazonaws.com/ss1/SUMM/double/a_first/Charlevoix_Fox_023_SUMM_0002.jpg"
58687283,"15-66","GENESERATH","CHARLEVOIX",6,"August",1942,"10",1.4,283.286,13.715,23.3,45.59804,-85.53899,"https://changes-ifr.s3.us-east-2.amazonaws.com/ss1/SUMM/double/a_first/Charlevoix_Geneserath_011_SUMM_0001.jpg","https://changes-ifr.s3.us-east-2.amazonaws.com/ss1/SUMM/double/a_first/Charlevoix_Geneserath_011_SUMM_0002.jpg"
58687284,"15-6","HOFFMAN","CHARLEVOIX",18,"August",1941,NA,NA,48.604,6.705,19.6,45.13193,-84.78038,"https://changes-ifr.s3.us-east-2.amazonaws.com/ss1/SUMM/double/a_first/Charlevoix_Hoffman_SUMM_20191125112552851_0001.jpg","https://changes-ifr.s3.us-east-2.amazonaws.com/ss1/SUMM/double/a_first/Charlevoix_Hoffman_SUMM_20191125112552851_0002.jpg"
58687285,"15-75","GREENS","CHARLEVOIX",6,"August",1942,NA,NA,40.469,0.914,21.667,45.63332,-85.58343,"https://changes-ifr.s3.us-east-2.amazonaws.com/ss1/SUMM/double/a_first/Charlevoix_Greens_004_SUMM_0001.jpg","https://changes-ifr.s3.us-east-2.amazonaws.com/ss1/SUMM/double/a_first/Charlevoix_Greens_004_SUMM_0002.jpg"
58687286,"15-61","ROUND","CHARLEVOIX",28,"July",1959,NA,NA,26.305,18.287,22.222,45.31665,-85.25454,"https://changes-ifr.s3.us-east-2.amazonaws.com/ss1/SUMM/double/a_first/Charlevoix_Round_004_SUMM_0001.jpg","https://changes-ifr.s3.us-east-2.amazonaws.com/ss1/SUMM/double/a_first/Charlevoix_Round_004_SUMM_0002.jpg"
58687287,"15-21","SUMM","CHARLEVOIX",15,"July",1955,NA,NA,6879.806,31.088,23.2,45.26665,-85.13343,"https://changes-ifr.s3.us-east-2.amazonaws.com/ss1/SUMM/double/a_first/Charlevoix_SUMM_Charlevoix2.jpg","https://changes-ifr.s3.us-east-2.amazonaws.com/ss1/SUMM/double/a_first/Charlevoix_SUMM_Charlevoix2p2.jpg"
58687288,"15-21","SUMM","CHARLEVOIX",6,"August",1915,NA,NA,NA,NA,NA,45.26665,-85.13343,"https://changes-ifr.s3.us-east-2.amazonaws.com/ss1/SUMM/double/a_first/Charlevoix_SUMM_Charlevoix8.jpg","https://changes-ifr.s3.us-east-2.amazonaws.com/ss1/SUMM/double/a_first/Charlevoix_SUMM_Charlevoix8p2.jpg"
58687289,"15-21","SUMM","CHARLEVOIX",22,"July",1959,NA,5.9,6985.026,37.184,21.667,45.26665,-85.13343,"https://changes-ifr.s3.us-east-2.amazonaws.com/ss1/SUMM/double/a_first/Charlevoix_SUMM_Charlevoix3.jpg","https://changes-ifr.s3.us-east-2.amazonaws.com/ss1/SUMM/double/a_first/Charlevoix_SUMM_Charlevoix3p2.jpg"
58687290,"15-3","THUMB","CHARLEVOIX",16,"August",1941,NA,NA,196.074,46.327,21.1,45.19166,-84.7626,"https://changes-ifr.s3.us-east-2.amazonaws.com/ss1/SUMM/double/a_first/Charlevoix_Thumb_046_SUMM_0001.jpg","https://changes-ifr.s3.us-east-2.amazonaws.com/ss1/SUMM/double/a_first/Charlevoix_Thumb_046_SUMM_0002.jpg"
58687291,"15-56","SUSAN","CHARLEVOIX",27,"August",1950,NA,NA,52.61,4.572,17.778,45.3261,-85.18121,"https://changes-ifr.s3.us-east-2.amazonaws.com/ss1/SUMM/double/a_first/Charlevoix_Susan_008_SUMM_0001.jpg","https://changes-ifr.s3.us-east-2.amazonaws.com/ss1/SUMM/double/a_first/Charlevoix_Susan_008_SUMM_0002.jpg"
58687292,"15-21","SUMM","CHARLEVOIX",4,"August",1926,NA,NA,NA,NA,NA,45.26665,-85.13343,"https://changes-ifr.s3.us-east-2.amazonaws.com/ss1/SUMM/double/a_first/Charlevoix_SUMM_Charlevoix8p3.jpg","https://changes-ifr.s3.us-east-2.amazonaws.com/ss1/SUMM/double/a_first/Charlevoix_SUMM_Charlevoix8p4.jpg"
58687293,"15-25","WALLOON","CHARLEVOIX",11,"July",1945,NA,4.2,NA,NA,19.444,45.27499,-85.0001,"https://changes-ifr.s3.us-east-2.amazonaws.com/ss1/SUMM/double/a_first/Charlevoix_Walloon_130_SUMM_0001.jpg","https://changes-ifr.s3.us-east-2.amazonaws.com/ss1/SUMM/double/a_first/Charlevoix_Walloon_130_SUMM_0002.jpg"
58687294,"15-25","WALLOON","CHARLEVOIX",9,"August",1957,NA,5.5,1748.28,30.479,21.111,45.27499,-85.0001,"https://changes-ifr.s3.us-east-2.amazonaws.com/ss1/SUMM/double/a_first/Charlevoix_Walloon_131_SUMM_0001.jpg","https://changes-ifr.s3.us-east-2.amazonaws.com/ss1/SUMM/double/a_first/Charlevoix_Walloon_131_SUMM_0002.jpg"
58687295,"16-186","COCHRAN","CHEBOYGAN",3,"July",1945,NA,NA,11.129,3.657,22.778,45.40666,-84.55121,"https://changes-ifr.s3.us-east-2.amazonaws.com/ss1/SUMM/double/a_first/Cheboygan_Cochran_SUMM_041.jpg","https://changes-ifr.s3.us-east-2.amazonaws.com/ss1/SUMM/double/a_first/Cheboygan_Cochran_SUMM_042.jpg"
58687296,"16-144","BLACK","CHEBOYGAN",1,"July",1939,NA,5.08,4099.555,15.239,21.111,45.46666,-84.26676,"https://changes-ifr.s3.us-east-2.amazonaws.com/ss1/SUMM/double/a_first/Cheboygan_Black_SUMM_109.jpg","https://changes-ifr.s3.us-east-2.amazonaws.com/ss1/SUMM/double/a_first/Cheboygan_Black_SUMM_110.jpg"
58687297,"16-193","BURT","CHEBOYGAN",NA,"July",1955,NA,3.08,6758.397,22.249,23.278,45.46666,-84.66676,"https://changes-ifr.s3.us-east-2.amazonaws.com/ss1/SUMM/double/a_first/Cheboygan_Burt_SUMM_217.jpg","https://changes-ifr.s3.us-east-2.amazonaws.com/ss1/SUMM/double/a_first/Cheboygan_Burt_SUMM_218.jpg"
58687298,"16-18","DOG","CHEBOYGAN",15,"August",1932,"on state forest",NA,73.25,1.829,NA,45.28388,-84.39871,"https://changes-ifr.s3.us-east-2.amazonaws.com/ss1/SUMM/double/a_first/Cheboygan_Dog_SUMM_007.jpg","https://changes-ifr.s3.us-east-2.amazonaws.com/ss1/SUMM/double/a_first/Cheboygan_Dog_SUMM_008.jpg"
58687299,"16-186","COCHRAN","CHEBOYGAN",3,"July",1945,NA,NA,11.129,3.657,22.778,45.40666,-84.55121,"https://changes-ifr.s3.us-east-2.amazonaws.com/ss1/SUMM/double/a_first/Cheboygan_Cochran_SUMM_115.jpg","https://changes-ifr.s3.us-east-2.amazonaws.com/ss1/SUMM/double/a_first/Cheboygan_Cochran_SUMM_116.jpg"
58687301,"16-18","DOG","CHEBOYGAN",15,"August",1932,"part of state forest & game refuge",NA,73.25,1.829,NA,45.28388,-84.39871,"https://changes-ifr.s3.us-east-2.amazonaws.com/ss1/SUMM/double/a_first/Cheboygan_Dog_SUMM_009.jpg","https://changes-ifr.s3.us-east-2.amazonaws.com/ss1/SUMM/double/a_first/Cheboygan_Dog_SUMM_010.jpg"
58687303,"16-252","DOUGLAS","CHEBOYGAN",21,"June",1959,NA,0,1373.938,24.383,20,45.5811,-84.69704,"https://changes-ifr.s3.us-east-2.amazonaws.com/ss1/SUMM/double/a_first/Cheboygan_Douglas_SUMM_049.jpg","https://changes-ifr.s3.us-east-2.amazonaws.com/ss1/SUMM/double/a_first/Cheboygan_Douglas_SUMM_050.jpg"
58687304,"16-192","MULLETT","CHEBOYGAN",NA,"July",1956,NA,8.9,6730.069,44.803,18.889,45.5361,-84.51676,"https://changes-ifr.s3.us-east-2.amazonaws.com/ss1/SUMM/double/a_first/Cheboygan_Mullett_219.jpg","https://changes-ifr.s3.us-east-2.amazonaws.com/ss1/SUMM/double/a_first/Cheboygan_Mullett_220.jpg"
58687305,"16-32","HEMLOCK","CHEBOYGAN",28,"July",1932,"none ",2.3,2.428,20,21.111,45.19971,-84.40788,"https://changes-ifr.s3.us-east-2.amazonaws.com/ss1/SUMM/double/a_first/Cheboygan_Hemlock_040.jpg","https://changes-ifr.s3.us-east-2.amazonaws.com/ss1/SUMM/double/a_first/Cheboygan_Hemlock_041.jpg"
58687307,"16-32","HEMLOCK","CHEBOYGAN",28,"July",1932,"none",2.3,2.428,20,21.111,45.19971,-84.40788,"https://changes-ifr.s3.us-east-2.amazonaws.com/ss1/SUMM/double/a_first/Cheboygan_Hemlock_SUMM_040.jpg","https://changes-ifr.s3.us-east-2.amazonaws.com/ss1/SUMM/double/a_first/Cheboygan_Hemlock_SUMM_041.jpg"
58687308,"16-191","ROBERTS","CHEBOYGAN",5,"July",1945,NA,NA,21.651,1.219,22.778,45.40138,-84.55649,"https://changes-ifr.s3.us-east-2.amazonaws.com/ss1/SUMM/double/a_first/Cheboygan_Roberts_SUMM_023.jpg","https://changes-ifr.s3.us-east-2.amazonaws.com/ss1/SUMM/double/a_first/Cheboygan_Roberts_SUMM_024.jpg"
58687309,"16-82","SILVER","CHEBOYGAN",14,"August",1942,NA,15.6,29.543,27.431,21.8,45.26943,-84.63288,"https://changes-ifr.s3.us-east-2.amazonaws.com/ss1/SUMM/double/a_first/Cheboygan_Silver_33N_3W_S11-12_027.jpg","https://changes-ifr.s3.us-east-2.amazonaws.com/ss1/SUMM/double/a_first/Cheboygan_Silver_33N_3W_S11-12_028.jpg"
58687310,"16-14","SILVER","CHEBOYGAN",15,"August",1931,"on ranch. ranch buildings on shore of lake.",NA,61.109,NA,NA,45.20471,-84.31732,"https://changes-ifr.s3.us-east-2.amazonaws.com/ss1/SUMM/double/a_first/Cheboygan_Silver_33N_1E_S33_014.jpg","https://changes-ifr.s3.us-east-2.amazonaws.com/ss1/SUMM/double/a_first/Cheboygan_Silver_33N_1E_S33_015.jpg"
58687311,"16-192","MULLETT","CHEBOYGAN",NA,"July",1956,NA,8.9,6730.069,44.803,18.889,45.5361,-84.51676,"https://changes-ifr.s3.us-east-2.amazonaws.com/ss1/SUMM/double/a_first/Cheboygan_Mullett_SUMM_219.jpg","https://changes-ifr.s3.us-east-2.amazonaws.com/ss1/SUMM/double/a_first/Cheboygan_Mullett_SUMM_220.jpg"
58687312,"16-191","ROBERTS","CHEBOYGAN",5,"July",1945,NA,NA,21.651,1.219,22.778,45.40138,-84.55649,"https://changes-ifr.s3.us-east-2.amazonaws.com/ss1/SUMM/double/a_first/Cheboygan_Roberts_023.jpg","https://changes-ifr.s3.us-east-2.amazonaws.com/ss1/SUMM/double/a_first/Cheboygan_Roberts_024.jpg"
58687313,"16-82","SILVER","CHEBOYGAN",14,"August",1942,NA,2.9,29.543,27.431,21.111,45.26943,-84.63288,"https://changes-ifr.s3.us-east-2.amazonaws.com/ss1/SUMM/double/a_first/Cheboygan_Silver_33N_3W_S11-12_031.jpg","https://changes-ifr.s3.us-east-2.amazonaws.com/ss1/SUMM/double/a_first/Cheboygan_Silver_33N_3W_S11-12_032.jpg"
58687314,"16-14","SILVER","CHEBOYGAN",15,"August",1931,"on ranch. ranch buildings on shore of lake.",NA,61.109,NA,NA,45.20471,-84.31732,"https://changes-ifr.s3.us-east-2.amazonaws.com/ss1/SUMM/double/a_first/Cheboygan_Silver33N_1E_S33_SUMM_014.jpg","https://changes-ifr.s3.us-east-2.amazonaws.com/ss1/SUMM/double/a_first/Cheboygan_Silver33N_1E_S33_SUMM_015.jpg"
58687315,"16-82","SILVER","CHEBOYGAN",14,"August",1942,NA,15.6,29.543,27.431,21.8,45.26943,-84.63288,"https://changes-ifr.s3.us-east-2.amazonaws.com/ss1/SUMM/double/a_first/Cheboygan_Silver_33N_3W_S11-12_029.jpg","https://changes-ifr.s3.us-east-2.amazonaws.com/ss1/SUMM/double/a_first/Cheboygan_Silver_33N_3W_S11-12_030.jpg"
58687316,"16-82","SILVER","CHEBOYGAN",14,"August",1942,NA,15.6,29.543,27.431,21.8,45.26943,-84.63288,"https://changes-ifr.s3.us-east-2.amazonaws.com/ss1/SUMM/double/a_first/Cheboygan_Silver33N_3W_S11-12_SUMM_027.jpg","https://changes-ifr.s3.us-east-2.amazonaws.com/ss1/SUMM/double/a_first/Cheboygan_Silver33N_3W_S11-12_SUMM_028.jpg"
58687317,"16-82","SILVER","CHEBOYGAN",14,"August",1942,NA,0,29.543,27.431,21.8,45.26943,-84.63288,"https://changes-ifr.s3.us-east-2.amazonaws.com/ss1/SUMM/double/a_first/Cheboygan_Silver33N_3W_S11-12_SUMM_029.jpg","https://changes-ifr.s3.us-east-2.amazonaws.com/ss1/SUMM/double/a_first/Cheboygan_Silver33N_3W_S11-12_SUMM_030.jpg"
58687318,"16-82","SILVER","CHEBOYGAN",14,"August",1942,NA,2.9,29.543,27.431,21.111,45.26943,-84.63288,"https://changes-ifr.s3.us-east-2.amazonaws.com/ss1/SUMM/double/a_first/Cheboygan_Silver33N_3W_S11-12_SUMM_031.jpg","https://changes-ifr.s3.us-east-2.amazonaws.com/ss1/SUMM/double/a_first/Cheboygan_Silver33N_3W_S11-12_SUMM_032.jpg"
58687319,"16-142","WEBER","CHEBOYGAN",22,"July",1943,NA,NA,12.546,12.191,22.222,45.29804,-84.72426,"https://changes-ifr.s3.us-east-2.amazonaws.com/ss1/SUMM/double/a_first/Cheboygan_Weber_027.jpg","https://changes-ifr.s3.us-east-2.amazonaws.com/ss1/SUMM/double/a_first/Cheboygan_Weber_028.jpg"
58687320,"16-142","WEBER","CHEBOYGAN",22,"July",1943,NA,9.5,NA,NA,22.222,45.29804,-84.72426,"https://changes-ifr.s3.us-east-2.amazonaws.com/ss1/SUMM/double/a_first/Cheboygan_Weber_029.jpg","https://changes-ifr.s3.us-east-2.amazonaws.com/ss1/SUMM/double/a_first/Cheboygan_Weber_030.jpg"
58687321,"16-142","WEBER","CHEBOYGAN",22,"July",1943,NA,11.2,NA,NA,22.222,45.29804,-84.72426,"https://changes-ifr.s3.us-east-2.amazonaws.com/ss1/SUMM/double/a_first/Cheboygan_Weber_SUMM_029.jpg","https://changes-ifr.s3.us-east-2.amazonaws.com/ss1/SUMM/double/a_first/Cheboygan_Weber_SUMM_030.jpg"
58687322,"16-142","WEBER","CHEBOYGAN",22,"July",1943,NA,NA,12.546,12.191,22.222,45.29804,-84.72426,"https://changes-ifr.s3.us-east-2.amazonaws.com/ss1/SUMM/double/a_first/Cheboygan_Weber_SUMM_027.jpg","https://changes-ifr.s3.us-east-2.amazonaws.com/ss1/SUMM/double/a_first/Cheboygan_Weber_SUMM_028.jpg"
58687323,NA,"ANDRUS","CHIPPEWA",26,"August",1948,NA,2.4,12.141,7.62,23.9,NA,NA,"https://changes-ifr.s3.us-east-2.amazonaws.com/ss1/SUMM/double/a_first/Chippewa_Andrus_020.jpg","https://changes-ifr.s3.us-east-2.amazonaws.com/ss1/SUMM/double/a_first/Chippewa_Andrus_021.jpg"
58687324,"17-261","ARBUTUS","CHIPPEWA",13,"August",1969,NA,NA,9.713,1.829,22.222,46.3161,-84.91593,"https://changes-ifr.s3.us-east-2.amazonaws.com/ss1/SUMM/double/a_first/Chippewa_Arbutus_004.jpg","https://changes-ifr.s3.us-east-2.amazonaws.com/ss1/SUMM/double/a_first/Chippewa_Arbutus_005.jpg"
58687325,NA,"ANDRUS","CHIPPEWA",2,"June",1954,NA,NA,14.164,7.62,13.333,NA,NA,"https://changes-ifr.s3.us-east-2.amazonaws.com/ss1/SUMM/double/a_first/Chippewa_Andrus_022.jpg","https://changes-ifr.s3.us-east-2.amazonaws.com/ss1/SUMM/double/a_first/Chippewa_Andrus_023.jpg"
58687326,"17-209","CARP","CHIPPEWA",1,"July",1971,NA,NA,226.629,10.667,22.778,46.18332,-85.04177,"https://changes-ifr.s3.us-east-2.amazonaws.com/ss1/SUMM/double/a_first/Chippewa_Carp_(Big_Trout)_035.jpg","https://changes-ifr.s3.us-east-2.amazonaws.com/ss1/SUMM/double/a_first/Chippewa_Carp_(Big_Trout)_036.jpg"
58687327,"17-47","CARIBOU","CHIPPEWA",8,"July",1953,"40",NA,333.873,6.096,16.667,45.99582,-83.99454,"https://changes-ifr.s3.us-east-2.amazonaws.com/ss1/SUMM/double/a_first/Chippewa_Caribou_030.jpg","https://changes-ifr.s3.us-east-2.amazonaws.com/ss1/SUMM/double/a_first/Chippewa_Caribou_031.jpg"
58687328,"17-240","DUKES","CHIPPEWA",21,"September",1942,NA,NA,3.44,16.458,16.667,46.26138,-84.44177,"https://changes-ifr.s3.us-east-2.amazonaws.com/ss1/SUMM/double/a_first/Chippewa_Dukes_025.jpg","https://changes-ifr.s3.us-east-2.amazonaws.com/ss1/SUMM/double/a_first/Chippewa_Dukes_026.jpg"
58687329,"17-211","FRENCHMAN'S","CHIPPEWA",7,"July",1947,NA,NA,89.033,8.382,21.6,46.1836,-85.01565,"https://changes-ifr.s3.us-east-2.amazonaws.com/ss1/SUMM/double/a_first/Chippewa_Frenchman's_029.jpg","https://changes-ifr.s3.us-east-2.amazonaws.com/ss1/SUMM/double/a_first/Chippewa_Frenchman's_030.jpg"
58687330,"17-240","DUKES","CHIPPEWA",6,"July",1950,NA,NA,3.764,15.849,23.889,46.26138,-84.44177,"https://changes-ifr.s3.us-east-2.amazonaws.com/ss1/SUMM/double/a_first/Chippewa_Dukes_027.jpg","https://changes-ifr.s3.us-east-2.amazonaws.com/ss1/SUMM/double/a_first/Chippewa_Dukes_028.jpg"
58687331,"17-209","CARP","CHIPPEWA",3,"July",1947,NA,NA,226.629,10.667,22,46.18332,-85.04177,"https://changes-ifr.s3.us-east-2.amazonaws.com/ss1/SUMM/double/a_first/Chippewa_Carp_(Big_Trout)_033.jpg","https://changes-ifr.s3.us-east-2.amazonaws.com/ss1/SUMM/double/a_first/Chippewa_Carp_(Big_Trout)_034.jpg"
58687332,"17-211","FRENCHMAN'S","CHIPPEWA",1,"July",1971,NA,NA,89.033,6.096,23.333,46.1836,-85.01565,"https://changes-ifr.s3.us-east-2.amazonaws.com/ss1/SUMM/double/a_first/Chippewa_Frenchman's_031.jpg","https://changes-ifr.s3.us-east-2.amazonaws.com/ss1/SUMM/double/a_first/Chippewa_Frenchman's_032.jpg"
58687333,"17-331","HIGHBANKS","CHIPPEWA",11,"October",1949,NA,NA,7.568,12.191,15,46.36443,-84.86677,"https://changes-ifr.s3.us-east-2.amazonaws.com/ss1/SUMM/double/a_first/Chippewa_Highbanks_057.jpg","https://changes-ifr.s3.us-east-2.amazonaws.com/ss1/SUMM/double/a_first/Chippewa_Highbanks_058.jpg"
58687334,"17-331","HIGHBANKS","CHIPPEWA",6,"September",1950,NA,NA,7.568,12.801,18.5,46.36443,-84.86677,"https://changes-ifr.s3.us-east-2.amazonaws.com/ss1/SUMM/double/a_first/Chippewa_Highbanks_035.jpg","https://changes-ifr.s3.us-east-2.amazonaws.com/ss1/SUMM/double/a_first/Chippewa_Highbanks_036.jpg"
58687335,"17-244","GARLINGHOUSE","CHIPPEWA",6,"July",1960,NA,NA,9.47,2.438,18.889,46.29471,-84.55816,"https://changes-ifr.s3.us-east-2.amazonaws.com/ss1/SUMM/double/a_first/Chippewa_Garlinghouse_013.jpg","https://changes-ifr.s3.us-east-2.amazonaws.com/ss1/SUMM/double/a_first/Chippewa_Garlinghouse_014.jpg"
58687336,"17-423","JOHNSON","CHIPPEWA",26,"August",1948,NA,NA,17.402,4.572,24.6,46.42471,-85.04427,"https://changes-ifr.s3.us-east-2.amazonaws.com/ss1/SUMM/double/a_first/Chippewa_Johnson_006.jpg","https://changes-ifr.s3.us-east-2.amazonaws.com/ss1/SUMM/double/a_first/Chippewa_Johnson_007.jpg"
58687337,"17-247","KINROSS","CHIPPEWA",9,"August",1950,NA,NA,26.305,3.657,21.111,46.26804,-84.50343,"https://changes-ifr.s3.us-east-2.amazonaws.com/ss1/SUMM/double/a_first/Chippewa_Kinross_004.jpg","https://changes-ifr.s3.us-east-2.amazonaws.com/ss1/SUMM/double/a_first/Chippewa_Kinross_005.jpg"
58687338,"17-413","MCNEARNEY","CHIPPEWA",12,"July",1961,NA,NA,49.089,7.924,20,46.42721,-84.9576,"https://changes-ifr.s3.us-east-2.amazonaws.com/ss1/SUMM/double/a_first/Chippewa_McNearney_006.jpg","https://changes-ifr.s3.us-east-2.amazonaws.com/ss1/SUMM/double/a_first/Chippewa_McNearney_007.jpg"
58687339,"17-403","MONACLE","CHIPPEWA",19,"July",1955,NA,3,59.045,16.763,22.778,46.47416,-84.64593,"https://changes-ifr.s3.us-east-2.amazonaws.com/ss1/SUMM/double/a_first/Chippewa_Monacle_019.jpg","https://changes-ifr.s3.us-east-2.amazonaws.com/ss1/SUMM/double/a_first/Chippewa_Monacle_020.jpg"
58687340,"17-340","PIATT","CHIPPEWA",1,"October",1955,NA,NA,93.08,18.287,19.444,46.42249,-85.01732,"https://changes-ifr.s3.us-east-2.amazonaws.com/ss1/SUMM/double/a_first/Chippewa_Piatt_007.jpg","https://changes-ifr.s3.us-east-2.amazonaws.com/ss1/SUMM/double/a_first/Chippewa_Piatt_008.jpg"
58687342,"17-327","SOLDIER","CHIPPEWA",25,"July",1955,NA,NA,7.608,6.4,22.778,46.34888,-84.86621,"https://changes-ifr.s3.us-east-2.amazonaws.com/ss1/SUMM/double/a_first/Chippewa_Soldier_017.jpg","https://changes-ifr.s3.us-east-2.amazonaws.com/ss1/SUMM/double/a_first/Chippewa_Soldier_018.jpg"
58687343,"17-57","TROUT","CHIPPEWA",14,"July",1953,NA,8.5,106.839,7.315,26.111,45.99193,-84.1076,"https://changes-ifr.s3.us-east-2.amazonaws.com/ss1/SUMM/double/a_first/Chippewa_Trout_(Big)_007.jpg","https://changes-ifr.s3.us-east-2.amazonaws.com/ss1/SUMM/double/a_first/Chippewa_Trout_(Big)_008.jpg"
58687344,"17-265","WALKER","CHIPPEWA",10,"July",1947,NA,NA,6.475,NA,24.2,46.31749,-84.9801,"https://changes-ifr.s3.us-east-2.amazonaws.com/ss1/SUMM/double/a_first/Chippewa_Walker_016.jpg","https://changes-ifr.s3.us-east-2.amazonaws.com/ss1/SUMM/double/a_first/Chippewa_Walker_017.jpg"
58687345,"17-190","TROUT","CHIPPEWA",1,"July",1971,NA,NA,12.303,3.657,21.667,46.19388,-84.78065,"https://changes-ifr.s3.us-east-2.amazonaws.com/ss1/SUMM/double/a_first/Chippewa_Trout_(Little)_002.jpg","https://changes-ifr.s3.us-east-2.amazonaws.com/ss1/SUMM/double/a_first/Chippewa_Trout_(Little)_003.jpg"
58687346,"18-206","BUDD","CLARE",11,"June",1938,NA,NA,70.822,10.363,19,44.02027,-84.79426,"https://changes-ifr.s3.us-east-2.amazonaws.com/ss1/SUMM/double/a_first/Clare_Budd_SUMM_030.jpg","https://changes-ifr.s3.us-east-2.amazonaws.com/ss1/SUMM/double/a_first/Clare_Budd_SUMM_031.jpg"
58687347,"18-295","BLUEGILL","CLARE",10,"August",1950,NA,NA,5.504,10.972,25,44.10416,-84.76982,"https://changes-ifr.s3.us-east-2.amazonaws.com/ss1/SUMM/double/a_first/Clare_Bluegill_SUMM_023.jpg","https://changes-ifr.s3.us-east-2.amazonaws.com/ss1/SUMM/double/a_first/Clare_Bluegill_SUMM_024.jpg"
58687348,"18-2","BAILEY","CLARE",13,"September",1952,NA,NA,16.188,11.734,23.889,43.89166,-84.65148,"https://changes-ifr.s3.us-east-2.amazonaws.com/ss1/SUMM/double/a_first/Clare_Bailey_SUMM_003.jpg","https://changes-ifr.s3.us-east-2.amazonaws.com/ss1/SUMM/double/a_first/Clare_Bailey_SUMM_004.jpg"
58687349,"18-197","ARNOLD","CLARE",9,"October",1967,"80",NA,47.754,25.907,13.667,44.06943,-84.75204,"https://changes-ifr.s3.us-east-2.amazonaws.com/ss1/SUMM/double/a_first/Clare_Arnold19N_4W_S2-3_SUMM_016.jpg","https://changes-ifr.s3.us-east-2.amazonaws.com/ss1/SUMM/double/a_first/Clare_Arnold19N_4W_S2-3_SUMM_017.jpg"
58687350,"18-84","BREMAN","CLARE",11,"July",1964,NA,NA,1.497,5.181,NA,43.9761,-84.70898,"https://changes-ifr.s3.us-east-2.amazonaws.com/ss1/SUMM/double/a_first/Clare_Breman_SUMM_003.jpg","https://changes-ifr.s3.us-east-2.amazonaws.com/ss1/SUMM/double/a_first/Clare_Breman_SUMM_004.jpg"
58687351,"18-196","CRANBERRY","CLARE",20,"June",1956,NA,NA,42.898,6.096,26.111,44.05749,-84.74371,"https://changes-ifr.s3.us-east-2.amazonaws.com/ss1/SUMM/double/a_first/Clare_Cranberry19N_4W_S1-12_SUMM_009.jpg","https://changes-ifr.s3.us-east-2.amazonaws.com/ss1/SUMM/double/a_first/Clare_Cranberry19N_4W_S1-12_SUMM_010.jpg"
58687352,"18-69","CROOKED","CLARE",4,"August",1941,NA,1.1,106.718,22.249,25,43.84749,-85.01482,"https://changes-ifr.s3.us-east-2.amazonaws.com/ss1/SUMM/double/a_first/Clare_Crooked_SUMM_001_01.jpg","https://changes-ifr.s3.us-east-2.amazonaws.com/ss1/SUMM/double/a_first/Clare_Crooked_SUMM_001_02.jpg"
58687353,"18-69","CROOKED","CLARE",4,"August",1941,NA,1.1,106.718,22.249,25,43.84749,-85.01482,"https://changes-ifr.s3.us-east-2.amazonaws.com/ss1/SUMM/double/a_first/Clare_Crooked_SUMM_029.jpg","https://changes-ifr.s3.us-east-2.amazonaws.com/ss1/SUMM/double/a_first/Clare_Crooked_SUMM_030.jpg"
58687354,"18-55","CURREY","CLARE",19,"September",1962,NA,NA,1.214,1.829,13.333,43.89728,-85.02435,"https://changes-ifr.s3.us-east-2.amazonaws.com/ss1/SUMM/double/a_first/Clare_Currey_SUMM_003.jpg","https://changes-ifr.s3.us-east-2.amazonaws.com/ss1/SUMM/double/a_first/Clare_Currey_SUMM_004.jpg"
58687355,"18-50","DEADMANS","CLARE",11,"August",1964,NA,NA,5.504,NA,NA,43.83277,-84.92454,"https://changes-ifr.s3.us-east-2.amazonaws.com/ss1/SUMM/double/a_first/Clare_Deadmans_SUMM_007.jpg","https://changes-ifr.s3.us-east-2.amazonaws.com/ss1/SUMM/double/a_first/Clare_Deadmans_SUMM_008.jpg"
58687356,"18-66","EIGHTPOINT","CLARE",21,"September",1948,NA,NA,165.925,7.62,NA,43.83999,-85.07343,"https://changes-ifr.s3.us-east-2.amazonaws.com/ss1/SUMM/double/a_first/Clare_EightPoint_SUMM_014.jpg","https://changes-ifr.s3.us-east-2.amazonaws.com/ss1/SUMM/double/a_first/Clare_EightPoint_SUMM_015.jpg"
58687357,"18-49","FARWELLMILL","CLARE",11,"August",1964,NA,NA,10.927,2.743,NA,43.83304,-84.87732,"https://changes-ifr.s3.us-east-2.amazonaws.com/ss1/SUMM/double/a_first/Clare_FarwellMill_SUMM_004.jpg","https://changes-ifr.s3.us-east-2.amazonaws.com/ss1/SUMM/double/a_first/Clare_FarwellMill_SUMM_005.jpg"
58687358,"18-125","GEORGE","CLARE",15,"July",1954,NA,NA,54.229,7.62,26.111,43.95027,-84.92787,"https://changes-ifr.s3.us-east-2.amazonaws.com/ss1/SUMM/double/a_first/Clare_George_SUMM_025.jpg","https://changes-ifr.s3.us-east-2.amazonaws.com/ss1/SUMM/double/a_first/Clare_George_SUMM_026.jpg"
58687359,"18-83","GRASS","CLARE",10,"October",1960,NA,NA,4.047,6.096,NA,43.8211,-84.97759,"https://changes-ifr.s3.us-east-2.amazonaws.com/ss1/SUMM/double/a_first/Clare_Grass_SUMM_003.jpg","https://changes-ifr.s3.us-east-2.amazonaws.com/ss1/SUMM/double/a_first/Clare_Grass_SUMM_004.jpg"
58687360,"18-177","GREENPINE","CLARE",15,"August",1963,NA,NA,1.764,12.191,22.889,43.91332,-85.01676,"https://changes-ifr.s3.us-east-2.amazonaws.com/ss1/SUMM/double/a_first/Clare_GreenPine_SUMM_014.jpg","https://changes-ifr.s3.us-east-2.amazonaws.com/ss1/SUMM/double/a_first/Clare_GreenPine_SUMM_015.jpg"
58687361,"18-123","LILY","CLARE",1,"September",1960,NA,NA,65.156,2.438,26.167,43.99443,-84.90315,"https://changes-ifr.s3.us-east-2.amazonaws.com/ss1/SUMM/double/a_first/Clare_Lily_SUMM_007.jpg","https://changes-ifr.s3.us-east-2.amazonaws.com/ss1/SUMM/double/a_first/Clare_Lily_SUMM_008.jpg"
58687362,"18-31","HALFMOON","CLARE",1,"October",1959,NA,NA,36.423,6.096,NA,43.90221,-84.94815,"https://changes-ifr.s3.us-east-2.amazonaws.com/ss1/SUMM/double/a_first/Clare_HalfMoon18N_5W_S3132_SUMM_003.jpg","https://changes-ifr.s3.us-east-2.amazonaws.com/ss1/SUMM/double/a_first/Clare_HalfMoon18N_5W_S3132_SUMM_004.jpg"
58687363,"18-296","LONG","CLARE",12,"August",1950,NA,0,84.986,23.164,22.778,44.09388,-84.76621,"https://changes-ifr.s3.us-east-2.amazonaws.com/ss1/SUMM/double/a_first/Clare_Long20N_4W_S22-26-27_SUMM_013.jpg","https://changes-ifr.s3.us-east-2.amazonaws.com/ss1/SUMM/double/a_first/Clare_Long20N_4W_S22-26-27_SUMM_014.jpg"
58687364,"18-215","LITTLELONG","CLARE",5,"August",1950,NA,0.3,17.402,18.592,22.222,44.02638,-84.7851,"https://changes-ifr.s3.us-east-2.amazonaws.com/ss1/SUMM/double/a_first/Clare_LittleLong_SUMM_036.jpg","https://changes-ifr.s3.us-east-2.amazonaws.com/ss1/SUMM/double/a_first/Clare_LittleLong_SUMM_037.jpg"
58687365,"18-214","SUTHERLAND","CLARE",31,"August",1960,NA,NA,16.997,3.048,25.889,44.02471,-84.76926,"https://changes-ifr.s3.us-east-2.amazonaws.com/ss1/SUMM/double/a_first/Clare_Sutherland_SUMM_015.jpg","https://changes-ifr.s3.us-east-2.amazonaws.com/ss1/SUMM/double/a_first/Clare_Sutherland_SUMM_016.jpg"
58687366,"18-57","MUDBIG","CLARE",8,"September",1960,NA,NA,80.939,1.829,27.667,43.90027,-85.07426,"https://changes-ifr.s3.us-east-2.amazonaws.com/ss1/SUMM/double/a_first/Clare_MudBig17N_6W_S31-6_SUMM_010.jpg","https://changes-ifr.s3.us-east-2.amazonaws.com/ss1/SUMM/double/a_first/Clare_MudBig17N_6W_S31-6_SUMM_011.jpg"
58687367,"18-12","SHAMROCK","CLARE",13,"July",1962,NA,NA,40.469,3.048,23.889,43.83123,-84.76083,"https://changes-ifr.s3.us-east-2.amazonaws.com/ss1/SUMM/double/a_first/Clare_Shamrock_SUMM_005.jpg","https://changes-ifr.s3.us-east-2.amazonaws.com/ss1/SUMM/double/a_first/Clare_Shamrock_SUMM_006.jpg"
58687368,"18-150","SILVER","CLARE",17,"August",1950,NA,0,22.056,15.849,22.778,43.91888,-84.96565,"https://changes-ifr.s3.us-east-2.amazonaws.com/ss1/SUMM/double/a_first/Clare_Silver_SUMM_005.jpg","https://changes-ifr.s3.us-east-2.amazonaws.com/ss1/SUMM/double/a_first/Clare_Silver_SUMM_006.jpg"
58687369,"18-124","SHINGLE","CLARE",17,"July",1954,NA,NA,16.188,10.667,26.667,43.96388,-84.95371,"https://changes-ifr.s3.us-east-2.amazonaws.com/ss1/SUMM/double/a_first/Clare_Shingle_SUMM_015.jpg","https://changes-ifr.s3.us-east-2.amazonaws.com/ss1/SUMM/double/a_first/Clare_Shingle_SUMM_016.jpg"
58687370,"19-15","BURKE","CLINTON",17,"August",1938,NA,NA,0.724,11.887,25.3,42.80916,-84.38704,"https://changes-ifr.s3.us-east-2.amazonaws.com/ss1/SUMM/double/a_first/Clinton_Burke_037.jpg","https://changes-ifr.s3.us-east-2.amazonaws.com/ss1/SUMM/double/a_first/Clinton_Burke_038.jpg"
58687371,"18-160","WINDOVER","CLARE",16,"August",1950,NA,0,20.235,20.725,25,43.95721,-84.99954,"https://changes-ifr.s3.us-east-2.amazonaws.com/ss1/SUMM/double/a_first/Clare_Windover_SUMM_022.jpg","https://changes-ifr.s3.us-east-2.amazonaws.com/ss1/SUMM/double/a_first/Clare_Windover_SUMM_023.jpg"
58687372,"19-98","MUSKRAT","CLINTON",25,"July",1991,NA,NA,17.402,NA,25,42.9111,-84.58982,"https://changes-ifr.s3.us-east-2.amazonaws.com/ss1/SUMM/double/a_first/Clinton_Muskrat_012.jpg","https://changes-ifr.s3.us-east-2.amazonaws.com/ss1/SUMM/double/a_first/Clinton_Muskrat_013.jpg"
58687373,"19-21","PARK","CLINTON",15,"August",1938,NA,NA,75.152,8.229,26,42.78971,-84.43982,"https://changes-ifr.s3.us-east-2.amazonaws.com/ss1/SUMM/double/a_first/Clinton_Park_018.jpg","https://changes-ifr.s3.us-east-2.amazonaws.com/ss1/SUMM/double/a_first/Clinton_Park_019.jpg"
58687374,"19-16","ROSE","CLINTON",19,"August",1938,NA,NA,10.805,2.743,27.222,42.79443,-84.39232,"https://changes-ifr.s3.us-east-2.amazonaws.com/ss1/SUMM/double/a_first/Clinton_Rose_008.jpg","https://changes-ifr.s3.us-east-2.amazonaws.com/ss1/SUMM/double/a_first/Clinton_Rose_009.jpg"
58687375,"20-63","BRIGHT","CRAWFORD",NA,"August",1946,NA,NA,5.261,12.191,20.1,44.72916,-84.68482,"https://changes-ifr.s3.us-east-2.amazonaws.com/ss1/SUMM/double/a_first/Crawford_Bright_SUMM_012.jpg","https://changes-ifr.s3.us-east-2.amazonaws.com/ss1/SUMM/double/a_first/Crawford_Bright_SUMM_013.jpg"
58687376,"20-62","GLORY","CRAWFORD",NA,"August",1946,NA,3,9.308,14.325,21.5,44.7316,-84.68352,"https://changes-ifr.s3.us-east-2.amazonaws.com/ss1/SUMM/double/a_first/Crawford_Glory_SUMM_015.jpg","https://changes-ifr.s3.us-east-2.amazonaws.com/ss1/SUMM/double/a_first/Crawford_Glory_SUMM_016.jpg"
58687377,"20-63","BRIGHT","CRAWFORD",14,"September",1962,NA,NA,NA,NA,NA,44.72916,-84.68482,"https://changes-ifr.s3.us-east-2.amazonaws.com/ss1/SUMM/double/a_first/Crawford_Bright_SUMM_018.jpg","https://changes-ifr.s3.us-east-2.amazonaws.com/ss1/SUMM/double/a_first/Crawford_Bright_SUMM_019.jpg"
58687378,"20-63","BRIGHT","CRAWFORD",19,"May",1960,NA,NA,NA,NA,NA,44.72916,-84.68482,"https://changes-ifr.s3.us-east-2.amazonaws.com/ss1/SUMM/double/a_first/Crawford_Bright_SUMM_020.jpg","https://changes-ifr.s3.us-east-2.amazonaws.com/ss1/SUMM/double/a_first/Crawford_Bright_SUMM_021.jpg"
58687379,"20-75","HOWE","CRAWFORD",4,"August",1937,NA,6,5.585,7.315,23.5,44.68749,-84.81482,"https://changes-ifr.s3.us-east-2.amazonaws.com/ss1/SUMM/double/a_first/Crawford_Howe_SUMM_20191125112930134_0001.jpg","https://changes-ifr.s3.us-east-2.amazonaws.com/ss1/SUMM/double/a_first/Crawford_Howe_SUMM_20191125112930134_0002.jpg"
58687380,"20-75","HOWES","CRAWFORD",4,"August",1937,NA,6,5.585,7.315,23.5,44.68749,-84.81482,"https://changes-ifr.s3.us-east-2.amazonaws.com/ss1/SUMM/double/a_first/Crawford_Howes_SUMM_018.jpg","https://changes-ifr.s3.us-east-2.amazonaws.com/ss1/SUMM/double/a_first/Crawford_Howes_SUMM_019.jpg"
58687381,"2-127","ROUND","DELTA",30,"July",1937,"8",NA,184.136,16.763,19.444,46.16084,-86.74976,"https://changes-ifr.s3.us-east-2.amazonaws.com/ss1/SUMM/double/a_first/Delta_Round_SUMM_20191125114231708_0001.jpg","https://changes-ifr.s3.us-east-2.amazonaws.com/ss1/SUMM/double/a_first/Delta_Round_SUMM_20191125114231708_0002.jpg"
58687382,"2-127","ROUND","DELTA",NA,NA,1972,NA,NA,NA,NA,NA,46.16084,-86.74976,"https://changes-ifr.s3.us-east-2.amazonaws.com/ss1/SUMM/double/a_first/Delta_Round_SUMM_20191125114245941_0001.jpg","https://changes-ifr.s3.us-east-2.amazonaws.com/ss1/SUMM/double/a_first/Delta_Round_SUMM_20191125114245941_0002.jpg"
58687384,"20-44","MARGRETHE","CRAWFORD",26,"July",1954,NA,5.3,777.013,19.811,21.111,44.65054,-84.78732,"https://changes-ifr.s3.us-east-2.amazonaws.com/ss1/SUMM/double/a_first/Crawford_Margrethe_SUMM_028.jpg","https://changes-ifr.s3.us-east-2.amazonaws.com/ss1/SUMM/double/a_first/Crawford_Margrethe_SUMM_029.jpg"
58687385,"20-94","KPBIG","CRAWFORD",25,"August",1947,NA,NA,NA,8.229,26.667,44.79082,-84.54871,"https://changes-ifr.s3.us-east-2.amazonaws.com/ss1/SUMM/double/a_first/Crawford_KPBig_SUMM_007.jpg","https://changes-ifr.s3.us-east-2.amazonaws.com/ss1/SUMM/double/a_first/Crawford_KPBig_SUMM_008.jpg"
58687386,"25-11","LOBDELL","GENESSE",17,"July",1941,NA,0,220.425,23.773,22.2,42.79065,-83.84436,"https://changes-ifr.s3.us-east-2.amazonaws.com/ss1/SUMM/double/a_first/Genesse_Lobdell_SUMM_001_01_A.jpg","https://changes-ifr.s3.us-east-2.amazonaws.com/ss1/SUMM/double/a_first/Genesse_Lobdell_SUMM_001_01_B.jpg"
58687387,"26-62","CEDAR","GLADWIN",19,"August",1950,NA,NA,4.087,10.058,23.889,44.13749,-84.34954,"https://changes-ifr.s3.us-east-2.amazonaws.com/ss1/SUMM/double/a_first/Gladwin_Cedar_SUMM_006.jpg","https://changes-ifr.s3.us-east-2.amazonaws.com/ss1/SUMM/double/a_first/Gladwin_Cedar_SUMM_007.jpg"
58687388,"25-35","FENTON","GENESSE",6,"September",1955,NA,NA,341.967,28.04,20.556,42.83471,-83.71537,"https://changes-ifr.s3.us-east-2.amazonaws.com/ss1/SUMM/double/a_first/Genesse_Fenton_SUMM_001_02_A.jpg","https://changes-ifr.s3.us-east-2.amazonaws.com/ss1/SUMM/double/a_first/Genesse_Fenton_SUMM_001_02_B.jpg"
58687389,"26-57","ELK","GLADWIN",NA,"January",1959,NA,NA,28.733,10.667,24.444,44.15777,-84.35982,"https://changes-ifr.s3.us-east-2.amazonaws.com/ss1/SUMM/double/a_first/Gladwin_Elk_SUMM_014.jpg","https://changes-ifr.s3.us-east-2.amazonaws.com/ss1/SUMM/double/a_first/Gladwin_Elk_SUMM_015.jpg"
58687390,"26-37","BLUE","GLADWIN",19,"August",1950,NA,NA,4.856,14.63,21.111,44.12249,-84.56121,"https://changes-ifr.s3.us-east-2.amazonaws.com/ss1/SUMM/double/a_first/Gladwin_Blue_SUMM_005.jpg","https://changes-ifr.s3.us-east-2.amazonaws.com/ss1/SUMM/double/a_first/Gladwin_Blue_SUMM_006.jpg"
58687391,"26-33","HOISTER","GLADWIN",25,"August",1938,NA,NA,5.382,9.448,22.5,44.14166,-84.56676,"https://changes-ifr.s3.us-east-2.amazonaws.com/ss1/SUMM/double/a_first/Gladwin_Hoister_SUMM_029.jpg","https://changes-ifr.s3.us-east-2.amazonaws.com/ss1/SUMM/double/a_first/Gladwin_Hoister_SUMM_030.jpg"
58687392,"26-31","HOUSE","GLADWIN",23,"August",1938,NA,7.7,1.781,6.4,25.8,44.14166,-84.57148,"https://changes-ifr.s3.us-east-2.amazonaws.com/ss1/SUMM/double/a_first/Gladwin_House_SUMM_017.jpg","https://changes-ifr.s3.us-east-2.amazonaws.com/ss1/SUMM/double/a_first/Gladwin_House_SUMM_018.jpg"
58687393,"26-53","LAKEFOUR","GLADWIN",7,"June",1959,NA,NA,14.974,12.191,NA,44.15499,-84.44565,"https://changes-ifr.s3.us-east-2.amazonaws.com/ss1/SUMM/double/a_first/Gladwin_LakeFour_SUMM_007.jpg","https://changes-ifr.s3.us-east-2.amazonaws.com/ss1/SUMM/double/a_first/Gladwin_LakeFour_SUMM_008.jpg"
58687394,"26-20","PRATT'S","GLADWIN",31,"August",1953,NA,NA,72.845,8.534,25.556,44.02499,-84.54704,"https://changes-ifr.s3.us-east-2.amazonaws.com/ss1/SUMM/double/a_first/Gladwin_Pratt's_SUMM_019.jpg","https://changes-ifr.s3.us-east-2.amazonaws.com/ss1/SUMM/double/a_first/Gladwin_Pratt's_SUMM_020.jpg"
58687395,"26-2","ROSS","GLADWIN",1,"July",1951,NA,NA,118.98,5.791,20.556,43.88381,-84.48406,"https://changes-ifr.s3.us-east-2.amazonaws.com/ss1/SUMM/double/a_first/Gladwin_Ross_SUMM_011.jpg","https://changes-ifr.s3.us-east-2.amazonaws.com/ss1/SUMM/double/a_first/Gladwin_Ross_SUMM_012.jpg"
58687396,"26-12","SMALLWOOD","GLADWIN",6,"August",1951,NA,NA,97.127,9.144,24.444,43.96027,-84.33593,"https://changes-ifr.s3.us-east-2.amazonaws.com/ss1/SUMM/double/a_first/Gladwin_Smallwood_SUMM_013.jpg","https://changes-ifr.s3.us-east-2.amazonaws.com/ss1/SUMM/double/a_first/Gladwin_Smallwood_SUMM_014.jpg"
58687397,"26-5","SLAUGHTER-HOUSE","GLADWIN",12,"August",1962,NA,NA,1.619,6.4,22.222,43.96888,-84.49732,"https://changes-ifr.s3.us-east-2.amazonaws.com/ss1/SUMM/double/a_first/Gladwin_Slaughter-House_SUMM_003.jpg","https://changes-ifr.s3.us-east-2.amazonaws.com/ss1/SUMM/double/a_first/Gladwin_Slaughter-House_SUMM_004.jpg"
58687398,"26-35","STREAKED","GLADWIN",19,"August",1947,NA,NA,4.047,7.62,26.667,44.12916,-84.55454,"https://changes-ifr.s3.us-east-2.amazonaws.com/ss1/SUMM/double/a_first/Gladwin_Streaked_SUMM_009.jpg","https://changes-ifr.s3.us-east-2.amazonaws.com/ss1/SUMM/double/a_first/Gladwin_Streaked_SUMM_010.jpg"
58687399,"26-3","WIXOM","GLADWIN",9,"July",1951,NA,NA,801.295,12.191,24.444,43.817,-84.38478,"https://changes-ifr.s3.us-east-2.amazonaws.com/ss1/SUMM/double/a_first/Gladwin_Wixom_SUMM_020.jpg","https://changes-ifr.s3.us-east-2.amazonaws.com/ss1/SUMM/double/a_first/Gladwin_Wixom_SUMM_021.jpg"
58687400,"26-32","TROUT","GLADWIN",24,"August",1938,NA,NA,2.145,4.572,20,44.1361,-84.5651,"https://changes-ifr.s3.us-east-2.amazonaws.com/ss1/SUMM/double/a_first/Gladwin_Trout_SUMM_032.jpg","https://changes-ifr.s3.us-east-2.amazonaws.com/ss1/SUMM/double/a_first/Gladwin_Trout_SUMM_033.jpg"
58687401,"26-4","WIGGINS","GLADWIN",19,"June",1951,NA,NA,140.024,7.62,20,43.9961,-84.54371,"https://changes-ifr.s3.us-east-2.amazonaws.com/ss1/SUMM/double/a_first/Gladwin_Wiggins_SUMM_018.jpg","https://changes-ifr.s3.us-east-2.amazonaws.com/ss1/SUMM/double/a_first/Gladwin_Wiggins_SUMM_019.jpg"
58687402,"26-35","STREAKED","GLADWIN",19,"August",1950,NA,NA,3.966,7.62,21.111,44.12916,-84.55454,"https://changes-ifr.s3.us-east-2.amazonaws.com/ss1/SUMM/double/a_first/Gladwin_Streaked_SUMM_011.jpg","https://changes-ifr.s3.us-east-2.amazonaws.com/ss1/SUMM/double/a_first/Gladwin_Streaked_SUMM_012.jpg"
58687403,"26-8","TWENTYLITTLE","GLADWIN",12,"August",1962,NA,NA,2.023,7.924,21.111,43.94304,-84.57093,"https://changes-ifr.s3.us-east-2.amazonaws.com/ss1/SUMM/double/a_first/Gladwin_TwentyLittle_SUMM_003.jpg","https://changes-ifr.s3.us-east-2.amazonaws.com/ss1/SUMM/double/a_first/Gladwin_TwentyLittle_SUMM_004.jpg"
58687404,"27-740","BARB","GOGEBIC",30,"July",1962,NA,NA,25.091,5.486,21.111,46.32693,-89.58954,"https://changes-ifr.s3.us-east-2.amazonaws.com/ss1/SUMM/double/a_first/Gogebic_Barb_SUMM_001.jpg","https://changes-ifr.s3.us-east-2.amazonaws.com/ss1/SUMM/double/a_first/Gogebic_Barb_SUMM_002.jpg"
58687405,"27-655","ALBINO","GOGEBIC",7,"August",1953,NA,NA,7.163,4.877,19.2,46.2611,-89.2626,"https://changes-ifr.s3.us-east-2.amazonaws.com/ss1/SUMM/double/a_first/Gogebic_Albino_SUMM_005.jpg","https://changes-ifr.s3.us-east-2.amazonaws.com/ss1/SUMM/double/a_first/Gogebic_Albino_SUMM_006.jpg"
58687406,"27-111","ALLEN","GOGEBIC",19,"June",1961,NA,2.2,31.971,12.496,23.889,46.22498,-89.17232,"https://changes-ifr.s3.us-east-2.amazonaws.com/ss1/SUMM/double/a_first/Gogebic_Allen_SUMM_009.jpg","https://changes-ifr.s3.us-east-2.amazonaws.com/ss1/SUMM/double/a_first/Gogebic_Allen_SUMM_010.jpg"
58687407,"27-520","BASSMARENISCOTWP","GOGEBIC",3,"September",1937,"camp bonifos c.c.c. camp, 7 cottages on lake",7,77.297,3.962,23.333,46.30498,-89.17427,"https://changes-ifr.s3.us-east-2.amazonaws.com/ss1/SUMM/double/a_first/Gogebic_BassMareniscoTwp_SUMM_004.jpg","https://changes-ifr.s3.us-east-2.amazonaws.com/ss1/SUMM/double/a_first/Gogebic_BassMareniscoTwp_SUMM_005.jpg"
58687408,"27-520","BASSMARENISCOTWP","GOGEBIC",6,"July",1962,NA,NA,77.297,3.657,NA,46.30498,-89.17427,"https://changes-ifr.s3.us-east-2.amazonaws.com/ss1/SUMM/double/a_first/Gogebic_BassMareniscoTwp_SUMM_002.jpg","https://changes-ifr.s3.us-east-2.amazonaws.com/ss1/SUMM/double/a_first/Gogebic_BassMareniscoTwp_SUMM_003.jpg"
58687409,"27-622","BEATONS","GOGEBIC",7,"September",1937,"two lodges (caseda and stickley) private, 45 boats for rent.",0.4,133.549,28.955,21.8,46.32804,-89.36621,"https://changes-ifr.s3.us-east-2.amazonaws.com/ss1/SUMM/double/a_first/Gogebic_Beatons_SUMM_030.jpg","https://changes-ifr.s3.us-east-2.amazonaws.com/ss1/SUMM/double/a_first/Gogebic_Beatons_SUMM_031.jpg"
58687410,"27-13","BIRCH","GOGEBIC",15,"August",1949,NA,NA,80.939,3.657,25,46.15582,-89.15538,"https://changes-ifr.s3.us-east-2.amazonaws.com/ss1/SUMM/double/a_first/Gogebic_Birch_SUMM_006.jpg","https://changes-ifr.s3.us-east-2.amazonaws.com/ss1/SUMM/double/a_first/Gogebic_Birch_SUMM_007.jpg"
58687411,"27-965","BEATONSLITTLE","GOGEBIC",11,"July",1963,NA,NA,6.07,5.486,22.778,46.33748,-89.37371,"https://changes-ifr.s3.us-east-2.amazonaws.com/ss1/SUMM/double/a_first/Gogebic_BeatonsLittle_SUMM_005.jpg","https://changes-ifr.s3.us-east-2.amazonaws.com/ss1/SUMM/double/a_first/Gogebic_BeatonsLittle_SUMM_006.jpg"
58687412,"27-833","BLUEBELL","GOGEBIC",17,"July",1962,NA,NA,4.047,7.62,21.111,46.27498,-89.7185,"https://changes-ifr.s3.us-east-2.amazonaws.com/ss1/SUMM/double/a_first/Gogebic_Bluebell_SUMM_004.jpg","https://changes-ifr.s3.us-east-2.amazonaws.com/ss1/SUMM/double/a_first/Gogebic_Bluebell_SUMM_005.jpg"
58687413,"27-885","BLUEJAY","GOGEBIC",13,"July",1960,NA,NA,8.094,13.715,23.333,46.32179,-89.78103,"https://changes-ifr.s3.us-east-2.amazonaws.com/ss1/SUMM/double/a_first/Gogebic_Bluejay_SUMM_004.jpg","https://changes-ifr.s3.us-east-2.amazonaws.com/ss1/SUMM/double/a_first/Gogebic_Bluejay_SUMM_005.jpg"
58687414,"27-364","BUCK","GOGEBIC",25,"June",1962,NA,NA,9.308,6.096,22.611,46.31998,-89.10927,"https://changes-ifr.s3.us-east-2.amazonaws.com/ss1/SUMM/double/a_first/Gogebic_Buck_SUMM_002.jpg","https://changes-ifr.s3.us-east-2.amazonaws.com/ss1/SUMM/double/a_first/Gogebic_Buck_SUMM_003.jpg"
58687415,"27-369","CASTLE","GOGEBIC",26,"June",1962,NA,NA,11.331,15.849,20.556,46.31526,-89.07371,"https://changes-ifr.s3.us-east-2.amazonaws.com/ss1/SUMM/double/a_first/Gogebic_Castle_SUMM_003.jpg","https://changes-ifr.s3.us-east-2.amazonaws.com/ss1/SUMM/double/a_first/Gogebic_Castle_SUMM_004.jpg"
58687416,"27-933","CHANEY","GOGEBIC",27,"September",1950,NA,NA,210.441,6.096,14.444,46.31665,-89.9126,"https://changes-ifr.s3.us-east-2.amazonaws.com/ss1/SUMM/double/a_first/Gogebic_Chaney_SUMM_007.jpg","https://changes-ifr.s3.us-east-2.amazonaws.com/ss1/SUMM/double/a_first/Gogebic_Chaney_SUMM_008.jpg"
58687417,"27-368","CASTLELITTLE","GOGEBIC",27,"June",1962,NA,NA,2.023,15.544,21.667,46.31768,-89.07727,"https://changes-ifr.s3.us-east-2.amazonaws.com/ss1/SUMM/double/a_first/Gogebic_CastleLittle_SUMM_002.jpg","https://changes-ifr.s3.us-east-2.amazonaws.com/ss1/SUMM/double/a_first/Gogebic_CastleLittle_SUMM_003.jpg"
58687418,"27-727","CLOVERLEAF","GOGEBIC",22,"June",1955,NA,0.5,23.068,6.705,20,46.2552,-89.45584,"https://changes-ifr.s3.us-east-2.amazonaws.com/ss1/SUMM/double/a_first/Gogebic_Cloverleaf_SUMM_008.jpg","https://changes-ifr.s3.us-east-2.amazonaws.com/ss1/SUMM/double/a_first/Gogebic_Cloverleaf_SUMM_009.jpg"
58687419,"27-727","CLOVERLEAF","GOGEBIC",22,"June",1955,NA,0.5,23.068,6.705,20,46.2552,-89.45584,"https://changes-ifr.s3.us-east-2.amazonaws.com/ss1/SUMM/double/a_first/Gogebic_Cloverleaf_SUMM_006.jpg","https://changes-ifr.s3.us-east-2.amazonaws.com/ss1/SUMM/double/a_first/Gogebic_Cloverleaf_SUMM_007.jpg"
58687420,"27-275","CISCO","GOGEBIC",13,"August",1953,NA,NA,204.775,6.096,21.9,46.24165,-89.44593,"https://changes-ifr.s3.us-east-2.amazonaws.com/ss1/SUMM/double/a_first/Gogebic_Cisco_SUMM_019.jpg","https://changes-ifr.s3.us-east-2.amazonaws.com/ss1/SUMM/double/a_first/Gogebic_Cisco_SUMM_020.jpg"
58687421,"27-769","CORNELIA","GOGEBIC",13,"July",1962,NA,NA,5.706,12.191,22.611,46.26804,-89.50288,"https://changes-ifr.s3.us-east-2.amazonaws.com/ss1/SUMM/double/a_first/Gogebic_Cornelia_SUMM_007.jpg","https://changes-ifr.s3.us-east-2.amazonaws.com/ss1/SUMM/double/a_first/Gogebic_Cornelia_SUMM_008.jpg"
58687422,"27-620","CRANE","GOGEBIC",20,"September",1952,NA,NA,26.305,6.096,16.111,46.32082,-89.30427,"https://changes-ifr.s3.us-east-2.amazonaws.com/ss1/SUMM/double/a_first/Gogebic_Crane_SUMM_004.jpg","https://changes-ifr.s3.us-east-2.amazonaws.com/ss1/SUMM/double/a_first/Gogebic_Crane_SUMM_005.jpg"
58687423,"27-180","CROOKED","GOGEBIC",18,"July",1938,NA,NA,229.017,20.116,23,46.23332,-89.29176,"https://changes-ifr.s3.us-east-2.amazonaws.com/ss1/SUMM/double/a_first/Gogebic_Crooked_SUMM_016.jpg","https://changes-ifr.s3.us-east-2.amazonaws.com/ss1/SUMM/double/a_first/Gogebic_Crooked_SUMM_017.jpg"
58687424,"27-357","CYRUS","GOGEBIC",16,"August",1961,NA,NA,NA,9.448,NA,46.24721,-89.64315,"https://changes-ifr.s3.us-east-2.amazonaws.com/ss1/SUMM/double/a_first/Gogebic_Cyrus_SUMM_008.jpg","https://changes-ifr.s3.us-east-2.amazonaws.com/ss1/SUMM/double/a_first/Gogebic_Cyrus_SUMM_009.jpg"
58687425,"27-948","CUP","GOGEBIC",15,"August",1963,NA,NA,33.59,1.219,19.611,46.38054,-89.49177,"https://changes-ifr.s3.us-east-2.amazonaws.com/ss1/SUMM/double/a_first/Gogebic_Cup_SUMM_003.jpg","https://changes-ifr.s3.us-east-2.amazonaws.com/ss1/SUMM/double/a_first/Gogebic_Cup_SUMM_004.jpg"
58687426,"27-857","DOWNY","GOGEBIC",29,"August",1943,NA,NA,2.428,7.62,20,46.26248,-89.66399,"https://changes-ifr.s3.us-east-2.amazonaws.com/ss1/SUMM/double/a_first/Gogebic_Downy_SUMM_002.jpg","https://changes-ifr.s3.us-east-2.amazonaws.com/ss1/SUMM/double/a_first/Gogebic_Downy_SUMM_003.jpg"
58687427,"27-784","DAWN","GOGEBIC",28,"September",1978,NA,NA,NA,18.287,16,46.25554,-89.60704,"https://changes-ifr.s3.us-east-2.amazonaws.com/ss1/SUMM/double/a_first/Gogebic_Dawn_SUMM_007.jpg","https://changes-ifr.s3.us-east-2.amazonaws.com/ss1/SUMM/double/a_first/Gogebic_Dawn_SUMM_008.jpg"
58687428,"27-784","DAWN","GOGEBIC",4,"August",1961,NA,NA,NA,13.106,NA,46.25554,-89.60704,"https://changes-ifr.s3.us-east-2.amazonaws.com/ss1/SUMM/double/a_first/Gogebic_Dawn_SUMM_005.jpg","https://changes-ifr.s3.us-east-2.amazonaws.com/ss1/SUMM/double/a_first/Gogebic_Dawn_SUMM_006.jpg"
58687429,"27-104","DEVIL'SHEAD","GOGEBIC",24,"June",1960,NA,NA,36.827,14.325,22.778,46.21387,-89.24176,"https://changes-ifr.s3.us-east-2.amazonaws.com/ss1/SUMM/double/a_first/Gogebic_Devil'sHead_SUMM_012.jpg","https://changes-ifr.s3.us-east-2.amazonaws.com/ss1/SUMM/double/a_first/Gogebic_Devil'sHead_SUMM_013.jpg"
58687430,"27-315","DREAM","GOGEBIC",27,"August",1964,NA,NA,NA,NA,19.611,46.20693,-89.3751,"https://changes-ifr.s3.us-east-2.amazonaws.com/ss1/SUMM/double/a_first/Gogebic_Dream_SUMM_005.jpg","https://changes-ifr.s3.us-east-2.amazonaws.com/ss1/SUMM/double/a_first/Gogebic_Dream_SUMM_006.jpg"
58687431,"27-108","DUCK","GOGEBIC",30,"August",1956,NA,NA,246.864,7.62,17.667,46.20832,-89.21676,"https://changes-ifr.s3.us-east-2.amazonaws.com/ss1/SUMM/double/a_first/Gogebic_Duck_SUMM_010.jpg","https://changes-ifr.s3.us-east-2.amazonaws.com/ss1/SUMM/double/a_first/Gogebic_Duck_SUMM_011.jpg"
58687432,"27-97","DUCKLITTLE","GOGEBIC",28,"August",1962,NA,NA,16.997,19.811,22.5,46.22615,-89.22754,"https://changes-ifr.s3.us-east-2.amazonaws.com/ss1/SUMM/double/a_first/Gogebic_DuckLittle_SUMM_014.jpg","https://changes-ifr.s3.us-east-2.amazonaws.com/ss1/SUMM/double/a_first/Gogebic_DuckLittle_SUMM_015.jpg"
58687433,"27-1012","ELBOW","GOGEBIC",27,"September",1978,NA,NA,10.522,6.096,15,46.35137,-89.78343,"https://changes-ifr.s3.us-east-2.amazonaws.com/ss1/SUMM/double/a_first/Gogebic_Elbow_SUMM_010.jpg","https://changes-ifr.s3.us-east-2.amazonaws.com/ss1/SUMM/double/a_first/Gogebic_Elbow_SUMM_011.jpg"
58687434,"27-325","DUTCH","GOGEBIC",13,"August",1955,NA,NA,8.984,18.287,24.7,46.21387,-89.45982,"https://changes-ifr.s3.us-east-2.amazonaws.com/ss1/SUMM/double/a_first/Gogebic_Dutch_SUMM_003.jpg","https://changes-ifr.s3.us-east-2.amazonaws.com/ss1/SUMM/double/a_first/Gogebic_Dutch_SUMM_004.jpg"
58687435,"27-284","DUMBBELL","GOGEBIC",14,"August",1955,NA,NA,NA,NA,25,46.231,-89.46353,"https://changes-ifr.s3.us-east-2.amazonaws.com/ss1/SUMM/double/a_first/Gogebic_Dumbbell_SUMM_002.jpg","https://changes-ifr.s3.us-east-2.amazonaws.com/ss1/SUMM/double/a_first/Gogebic_Dumbbell_SUMM_003.jpg"
58687436,"27-1012","ELBOW","GOGEBIC",21,"July",1960,NA,NA,8.094,3.048,24.444,46.35137,-89.78343,"https://changes-ifr.s3.us-east-2.amazonaws.com/ss1/SUMM/double/a_first/Gogebic_Elbow_SUMM_008.jpg","https://changes-ifr.s3.us-east-2.amazonaws.com/ss1/SUMM/double/a_first/Gogebic_Elbow_SUMM_009.jpg"
58687437,"27-914","EEL","GOGEBIC",27,"June",1960,NA,NA,20.235,5.486,24.444,46.29582,-89.76121,"https://changes-ifr.s3.us-east-2.amazonaws.com/ss1/SUMM/double/a_first/Gogebic_Eel_SUMM_004.jpg","https://changes-ifr.s3.us-east-2.amazonaws.com/ss1/SUMM/double/a_first/Gogebic_Eel_SUMM_005.jpg"
58687438,"27-725","FOGGY","GOGEBIC",19,"August",1963,NA,NA,4.371,1.981,19.889,46.25315,-89.48667,"https://changes-ifr.s3.us-east-2.amazonaws.com/ss1/SUMM/double/a_first/Gogebic_Foggy_SUMM_003.jpg","https://changes-ifr.s3.us-east-2.amazonaws.com/ss1/SUMM/double/a_first/Gogebic_Foggy_SUMM_004.jpg"
58687439,"27-7","FINGERBIG","GOGEBIC",28,"June",1961,NA,NA,23.472,10.972,21.667,46.11943,-89.00565,"https://changes-ifr.s3.us-east-2.amazonaws.com/ss1/SUMM/double/a_first/Gogebic_FingerBig_SUMM_008.jpg","https://changes-ifr.s3.us-east-2.amazonaws.com/ss1/SUMM/double/a_first/Gogebic_FingerBig_SUMM_009.jpg"
58687440,"27-289","EMELINE","GOGEBIC",14,"August",1955,NA,NA,50.182,22.859,23.9,46.23887,-89.47926,"https://changes-ifr.s3.us-east-2.amazonaws.com/ss1/SUMM/double/a_first/Gogebic_Emeline_SUMM_002.jpg","https://changes-ifr.s3.us-east-2.amazonaws.com/ss1/SUMM/double/a_first/Gogebic_Emeline_SUMM_003.jpg"
58687441,"27-892","FOXPAW","GOGEBIC",7,"August",1962,NA,NA,4.047,6.096,22.778,46.30971,-89.81121,"https://changes-ifr.s3.us-east-2.amazonaws.com/ss1/SUMM/double/a_first/Gogebic_Foxpaw_SUMM_015.jpg","https://changes-ifr.s3.us-east-2.amazonaws.com/ss1/SUMM/double/a_first/Gogebic_Foxpaw_SUMM_016.jpg"
58687442,"27-443","ENGLESBY","GOGEBIC",2,"July",1962,NA,NA,13.962,3.962,21.222,46.27498,-88.99593,"https://changes-ifr.s3.us-east-2.amazonaws.com/ss1/SUMM/double/a_first/Gogebic_Englesby_SUMM_002.jpg","https://changes-ifr.s3.us-east-2.amazonaws.com/ss1/SUMM/double/a_first/Gogebic_Englesby_SUMM_003.jpg"
58687443,NA,"GOGEBIC","GOGEBIC",16,"June",1938,NA,7.8,5981.789,11.277,15,NA,NA,"https://changes-ifr.s3.us-east-2.amazonaws.com/ss1/SUMM/double/a_first/Gogebic_Gogebic_SUMM_044.jpg","https://changes-ifr.s3.us-east-2.amazonaws.com/ss1/SUMM/double/a_first/Gogebic_Gogebic_SUMM_045.jpg"
58687444,"27-142","GRASS","GOGEBIC",25,"June",1959,NA,NA,16.188,7.62,23.222,46.17498,-89.1251,"https://changes-ifr.s3.us-east-2.amazonaws.com/ss1/SUMM/double/a_first/Gogebic_Grass_SUMM_006.jpg","https://changes-ifr.s3.us-east-2.amazonaws.com/ss1/SUMM/double/a_first/Gogebic_Grass_SUMM_007.jpg"
58687445,"27-686","HARTLEY","GOGEBIC",19,"June",1979,NA,NA,10.117,1.829,20,46.32498,-89.39176,"https://changes-ifr.s3.us-east-2.amazonaws.com/ss1/SUMM/double/a_first/Gogebic_Hartley_SUMM_003.jpg","https://changes-ifr.s3.us-east-2.amazonaws.com/ss1/SUMM/double/a_first/Gogebic_Hartley_SUMM_004.jpg"
58687446,"27-142","GRASS","GOGEBIC",18,"August",1981,NA,NA,16.188,7.01,21,46.17498,-89.1251,"https://changes-ifr.s3.us-east-2.amazonaws.com/ss1/SUMM/double/a_first/Gogebic_Grass_SUMM_008.jpg","https://changes-ifr.s3.us-east-2.amazonaws.com/ss1/SUMM/double/a_first/Gogebic_Grass_SUMM_009.jpg"
58687447,"27-888","HENRY","GOGEBIC",7,"July",1960,NA,2.1,17.402,9.144,24.444,46.32776,-89.79038,"https://changes-ifr.s3.us-east-2.amazonaws.com/ss1/SUMM/double/a_first/Gogebic_Henry_SUMM_008.jpg","https://changes-ifr.s3.us-east-2.amazonaws.com/ss1/SUMM/double/a_first/Gogebic_Henry_SUMM_009.jpg"
58687448,"27-223","HAY","GOGEBIC",24,"July",1948,NA,NA,6.07,10.667,20.556,46.21387,-89.33065,"https://changes-ifr.s3.us-east-2.amazonaws.com/ss1/SUMM/double/a_first/Gogebic_Hay_SUMM_006.jpg","https://changes-ifr.s3.us-east-2.amazonaws.com/ss1/SUMM/double/a_first/Gogebic_Hay_SUMM_007.jpg"
58687449,"27-981","HEART","GOGEBIC",29,"July",1960,NA,NA,76.083,2.133,25,46.35415,-89.74593,"https://changes-ifr.s3.us-east-2.amazonaws.com/ss1/SUMM/double/a_first/Gogebic_Heart_SUMM_004.jpg","https://changes-ifr.s3.us-east-2.amazonaws.com/ss1/SUMM/double/a_first/Gogebic_Heart_SUMM_005.jpg"
58687450,"27-781","HOLLY","GOGEBIC",27,"September",1978,NA,NA,14.367,3.962,17.222,46.26387,-89.61121,"https://changes-ifr.s3.us-east-2.amazonaws.com/ss1/SUMM/double/a_first/Gogebic_Holly_SUMM_005.jpg","https://changes-ifr.s3.us-east-2.amazonaws.com/ss1/SUMM/double/a_first/Gogebic_Holly_SUMM_006.jpg"
58687451,"27-872","HONEYSUCKLE","GOGEBIC",17,"July",1962,NA,NA,4.047,17.373,20.556,46.27221,-89.72232,"https://changes-ifr.s3.us-east-2.amazonaws.com/ss1/SUMM/double/a_first/Gogebic_Honeysuckle_SUMM_007.jpg","https://changes-ifr.s3.us-east-2.amazonaws.com/ss1/SUMM/double/a_first/Gogebic_Honeysuckle_SUMM_008.jpg"
58687452,"27-148","HOIST","GOGEBIC",4,"September",1955,NA,NA,12.546,10.667,19.7,46.18332,-89.15843,"https://changes-ifr.s3.us-east-2.amazonaws.com/ss1/SUMM/double/a_first/Gogebic_Hoist_SUMM_003.jpg","https://changes-ifr.s3.us-east-2.amazonaws.com/ss1/SUMM/double/a_first/Gogebic_Hoist_SUMM_004.jpg"
58687453,"27-781","HOLLY","GOGEBIC",1,"August",1961,NA,NA,14.367,3.657,NA,46.26387,-89.61121,"https://changes-ifr.s3.us-east-2.amazonaws.com/ss1/SUMM/double/a_first/Gogebic_Holly_SUMM_003.jpg","https://changes-ifr.s3.us-east-2.amazonaws.com/ss1/SUMM/double/a_first/Gogebic_Holly_SUMM_004.jpg"
58687454,"27-863","IMAGE","GOGEBIC",13,"August",1948,NA,NA,10.117,6.096,22.5,46.25971,-89.68899,"https://changes-ifr.s3.us-east-2.amazonaws.com/ss1/SUMM/double/a_first/Gogebic_Image_SUMM_006.jpg","https://changes-ifr.s3.us-east-2.amazonaws.com/ss1/SUMM/double/a_first/Gogebic_Image_SUMM_007.jpg"
58687455,"27-30","IMP","GOGEBIC",11,"July",1938,NA,6.7,34.601,24.383,23.333,46.21665,-89.0751,"https://changes-ifr.s3.us-east-2.amazonaws.com/ss1/SUMM/double/a_first/Gogebic_Imp_SUMM_030.jpg","https://changes-ifr.s3.us-east-2.amazonaws.com/ss1/SUMM/double/a_first/Gogebic_Imp_SUMM_031.jpg"
58687456,"27-6","ISHKOTE","GOGEBIC",17,"July",1963,NA,NA,8.094,6.096,21.667,46.12332,-88.99176,"https://changes-ifr.s3.us-east-2.amazonaws.com/ss1/SUMM/double/a_first/Gogebic_Ishkote_SUMM_001.jpg","https://changes-ifr.s3.us-east-2.amazonaws.com/ss1/SUMM/double/a_first/Gogebic_Ishkote_SUMM_002.jpg"
58687457,"27-844","KING","GOGEBIC",23,"June",1964,NA,NA,7.042,NA,18.333,46.27498,-89.66676,"https://changes-ifr.s3.us-east-2.amazonaws.com/ss1/SUMM/double/a_first/Gogebic_King_SUMM_005.jpg","https://changes-ifr.s3.us-east-2.amazonaws.com/ss1/SUMM/double/a_first/Gogebic_King_SUMM_006.jpg"
58687458,"27-81","JENNINGS","GOGEBIC",11,"September",1937,"one flatbottomed boat on lake. no oars.",0.3,9.308,15.239,20,46.24026,-89.20149,"https://changes-ifr.s3.us-east-2.amazonaws.com/ss1/SUMM/double/a_first/Gogebic_Jennings_SUMM_010.jpg","https://changes-ifr.s3.us-east-2.amazonaws.com/ss1/SUMM/double/a_first/Gogebic_Jennings_SUMM_011.jpg"
58687459,"27-877","KUNSCHKE","GOGEBIC",16,"July",1948,NA,NA,6.435,6.4,22.222,46.25276,-89.66815,"https://changes-ifr.s3.us-east-2.amazonaws.com/ss1/SUMM/double/a_first/Gogebic_Kunschke_SUMM_008.jpg","https://changes-ifr.s3.us-east-2.amazonaws.com/ss1/SUMM/double/a_first/Gogebic_Kunschke_SUMM_009.jpg"
58687460,"27-70","KVIDERA","GOGEBIC",26,"July",1961,NA,NA,11.331,6.096,22.778,46.23136,-89.17006,"https://changes-ifr.s3.us-east-2.amazonaws.com/ss1/SUMM/double/a_first/Gogebic_Kvidera_SUMM_006.jpg","https://changes-ifr.s3.us-east-2.amazonaws.com/ss1/SUMM/double/a_first/Gogebic_Kvidera_SUMM_007.jpg"
58687461,"27-3","LACVIEUXDESERT","GOGEBIC",6,"August",1959,NA,NA,1740.186,11.582,21.111,46.13679,-89.08121,"https://changes-ifr.s3.us-east-2.amazonaws.com/ss1/SUMM/double/a_first/Gogebic_LacVieuxDesert_SUMM_018.jpg","https://changes-ifr.s3.us-east-2.amazonaws.com/ss1/SUMM/double/a_first/Gogebic_LacVieuxDesert_SUMM_019.jpg"
58687462,"27-3","LACVIEUXDESERT","GOGEBIC",12,"July",1971,NA,NA,1740.186,11.582,21.111,46.13679,-89.08121,"https://changes-ifr.s3.us-east-2.amazonaws.com/ss1/SUMM/double/a_first/Gogebic_LacVieuxDesert_SUMM_020.jpg","https://changes-ifr.s3.us-east-2.amazonaws.com/ss1/SUMM/double/a_first/Gogebic_LacVieuxDesert_SUMM_021.jpg"
58687463,"27-766","LANGFORDLITTLE","GOGEBIC",17,"July",1962,NA,NA,5.544,5.181,23,46.27498,-89.49454,"https://changes-ifr.s3.us-east-2.amazonaws.com/ss1/SUMM/double/a_first/Gogebic_LangfordLittle_SUMM_002.jpg","https://changes-ifr.s3.us-east-2.amazonaws.com/ss1/SUMM/double/a_first/Gogebic_LangfordLittle_SUMM_003.jpg"
58687464,"27-218","LOON","GOGEBIC",4,"October",1966,NA,NA,NA,15.239,11.111,46.19998,-89.29593,"https://changes-ifr.s3.us-east-2.amazonaws.com/ss1/SUMM/double/a_first/Gogebic_Loon_SUMM_011.jpg","https://changes-ifr.s3.us-east-2.amazonaws.com/ss1/SUMM/double/a_first/Gogebic_Loon_SUMM_012.jpg"
58687465,"27-696","LANGFORD","GOGEBIC",7,"August",1956,NA,NA,194.658,4.572,20.556,46.27498,-89.47926,"https://changes-ifr.s3.us-east-2.amazonaws.com/ss1/SUMM/double/a_first/Gogebic_Langford_SUMM_009.jpg","https://changes-ifr.s3.us-east-2.amazonaws.com/ss1/SUMM/double/a_first/Gogebic_Langford_SUMM_010.jpg"
58687466,"27-611","LUMBERJACK","GOGEBIC",1,"July",1961,NA,NA,10.117,12.191,25,46.25109,-89.1449,"https://changes-ifr.s3.us-east-2.amazonaws.com/ss1/SUMM/double/a_first/Gogebic_Lumberjack_SUMM_003.jpg","https://changes-ifr.s3.us-east-2.amazonaws.com/ss1/SUMM/double/a_first/Gogebic_Lumberjack_SUMM_004.jpg"
58687467,"27-495","MARION","GOGEBIC",6,"July",1938,NA,NA,128.612,12.191,21.8,46.26387,-89.0876,"https://changes-ifr.s3.us-east-2.amazonaws.com/ss1/SUMM/double/a_first/Gogebic_Marion_SUMM_018.jpg","https://changes-ifr.s3.us-east-2.amazonaws.com/ss1/SUMM/double/a_first/Gogebic_Marion_SUMM_019.jpg"
58687468,"27-896","MINK","GOGEBIC",27,"June",1955,NA,NA,25.739,1.829,21.111,46.31387,-89.78343,"https://changes-ifr.s3.us-east-2.amazonaws.com/ss1/SUMM/double/a_first/Gogebic_Mink_SUMM_007.jpg","https://changes-ifr.s3.us-east-2.amazonaws.com/ss1/SUMM/double/a_first/Gogebic_Mink_SUMM_008.jpg"
58687469,"27-852","MASTADON","GOGEBIC",18,"August",1961,NA,NA,NA,6.096,NA,46.2611,-89.65149,"https://changes-ifr.s3.us-east-2.amazonaws.com/ss1/SUMM/double/a_first/Gogebic_Mastadon_SUMM_005.jpg","https://changes-ifr.s3.us-east-2.amazonaws.com/ss1/SUMM/double/a_first/Gogebic_Mastadon_SUMM_006.jpg"
58687470,"27-935","MARELL","GOGEBIC",23,"June",1963,NA,0,3.845,13.715,25.556,46.30971,-89.93482,"https://changes-ifr.s3.us-east-2.amazonaws.com/ss1/SUMM/double/a_first/Gogebic_Marell_SUMM_005.jpg","https://changes-ifr.s3.us-east-2.amazonaws.com/ss1/SUMM/double/a_first/Gogebic_Marell_SUMM_006.jpg"
58687471,"27-827","MEANDER","GOGEBIC",8,"July",1964,NA,NA,NA,NA,17.722,46.2895,-89.67857,"https://changes-ifr.s3.us-east-2.amazonaws.com/ss1/SUMM/double/a_first/Gogebic_Meander_SUMM_006.jpg","https://changes-ifr.s3.us-east-2.amazonaws.com/ss1/SUMM/double/a_first/Gogebic_Meander_SUMM_007.jpg"
58687472,"27-896","MINK","GOGEBIC",29,"June",1955,NA,NA,25.739,1.829,21.111,46.31387,-89.78343,"https://changes-ifr.s3.us-east-2.amazonaws.com/ss1/SUMM/double/a_first/Gogebic_Mink_SUMM_009.jpg","https://changes-ifr.s3.us-east-2.amazonaws.com/ss1/SUMM/double/a_first/Gogebic_Mink_SUMM_010.jpg"
58687473,"27-723","MISTY","GOGEBIC",10,"July",1963,NA,NA,5.382,18.287,22.222,46.25274,-89.48224,"https://changes-ifr.s3.us-east-2.amazonaws.com/ss1/SUMM/double/a_first/Gogebic_Misty_SUMM_003.jpg","https://changes-ifr.s3.us-east-2.amazonaws.com/ss1/SUMM/double/a_first/Gogebic_Misty_SUMM_004.jpg"
58687474,"27-909","MISHIKE","GOGEBIC",12,"July",1960,NA,0.7,5.261,9.144,22.778,46.31248,-89.7501,"https://changes-ifr.s3.us-east-2.amazonaws.com/ss1/SUMM/double/a_first/Gogebic_Mishike_SUMM_006.jpg","https://changes-ifr.s3.us-east-2.amazonaws.com/ss1/SUMM/double/a_first/Gogebic_Mishike_SUMM_007.jpg"
58687475,"27-346","MOOSEHEAD","GOGEBIC",26,"July",1960,NA,NA,23.472,11.887,24.444,46.24165,-89.60843,"https://changes-ifr.s3.us-east-2.amazonaws.com/ss1/SUMM/double/a_first/Gogebic_Moosehead_SUMM_004.jpg","https://changes-ifr.s3.us-east-2.amazonaws.com/ss1/SUMM/double/a_first/Gogebic_Moosehead_SUMM_005.jpg"
58687476,"27-153","MOON","GOGEBIC",6,"August",1945,NA,0.5,37.637,12.191,21.111,46.1736,-89.20843,"https://changes-ifr.s3.us-east-2.amazonaws.com/ss1/SUMM/double/a_first/Gogebic_Moon_SUMM_014.jpg","https://changes-ifr.s3.us-east-2.amazonaws.com/ss1/SUMM/double/a_first/Gogebic_Moon_SUMM_015.jpg"
58687477,"27-346","MOOSEHEAD","GOGEBIC",25,"September",1978,NA,NA,21.854,11.887,NA,46.24165,-89.60843,"https://changes-ifr.s3.us-east-2.amazonaws.com/ss1/SUMM/double/a_first/Gogebic_Moosehead_SUMM_006.jpg","https://changes-ifr.s3.us-east-2.amazonaws.com/ss1/SUMM/double/a_first/Gogebic_Moosehead_SUMM_007.jpg"
58687478,"27-930","MORAINE","GOGEBIC",22,"July",1960,NA,NA,27.115,6.705,23.333,46.27776,-89.78343,"https://changes-ifr.s3.us-east-2.amazonaws.com/ss1/SUMM/double/a_first/Gogebic_Moraine_SUMM_005.jpg","https://changes-ifr.s3.us-east-2.amazonaws.com/ss1/SUMM/double/a_first/Gogebic_Moraine_SUMM_006.jpg"
58687479,"27-311","MULE","GOGEBIC",26,"August",1964,NA,NA,NA,NA,20.889,46.21804,-89.38482,"https://changes-ifr.s3.us-east-2.amazonaws.com/ss1/SUMM/double/a_first/Gogebic_Mule_SUMM_003.jpg","https://changes-ifr.s3.us-east-2.amazonaws.com/ss1/SUMM/double/a_first/Gogebic_Mule_SUMM_004.jpg"
58687481,"27-287","MOSQUITOBIG","GOGEBIC",23,"September",1960,NA,NA,5.382,20.116,NA,46.24617,-89.47046,"https://changes-ifr.s3.us-east-2.amazonaws.com/ss1/SUMM/double/a_first/Gogebic_MosquitoBig_SUMM_003.jpg","https://changes-ifr.s3.us-east-2.amazonaws.com/ss1/SUMM/double/a_first/Gogebic_MosquitoBig_SUMM_004.jpg"
58687482,"27-10","NORWOODBOOT","GOGEBIC",21,"June",1961,NA,3.8,48.563,18.287,21.111,46.11248,-89.01593,"https://changes-ifr.s3.us-east-2.amazonaws.com/ss1/SUMM/double/a_first/Gogebic_NorwoodBoot_SUMM_004.jpg","https://changes-ifr.s3.us-east-2.amazonaws.com/ss1/SUMM/double/a_first/Gogebic_NorwoodBoot_SUMM_005.jpg"
58687483,"27-794","ORCHARD","GOGEBIC",12,"May",1959,NA,NA,3.157,13.411,NA,46.25832,-89.57093,"https://changes-ifr.s3.us-east-2.amazonaws.com/ss1/SUMM/double/a_first/Gogebic_Orchard_SUMM_001.jpg","https://changes-ifr.s3.us-east-2.amazonaws.com/ss1/SUMM/double/a_first/Gogebic_Orchard_SUMM_002.jpg"
58687484,"27-887","ORCHID","GOGEBIC",8,"July",1960,NA,NA,3.238,3.048,NA,46.3236,-89.78343,"https://changes-ifr.s3.us-east-2.amazonaws.com/ss1/SUMM/double/a_first/Gogebic_Orchid_SUMM_002.jpg","https://changes-ifr.s3.us-east-2.amazonaws.com/ss1/SUMM/double/a_first/Gogebic_Orchid_SUMM_003.jpg"
58687485,"27-926","OSPREY","GOGEBIC",28,"August",1964,NA,NA,NA,NA,18.667,46.28665,-89.8038,"https://changes-ifr.s3.us-east-2.amazonaws.com/ss1/SUMM/double/a_first/Gogebic_Osprey_SUMM_002.jpg","https://changes-ifr.s3.us-east-2.amazonaws.com/ss1/SUMM/double/a_first/Gogebic_Osprey_SUMM_003.jpg"
58687486,"27-854","ORMES","GOGEBIC",28,"September",1978,NA,NA,20.113,19.811,NA,46.27082,-89.65313,"https://changes-ifr.s3.us-east-2.amazonaws.com/ss1/SUMM/double/a_first/Gogebic_Ormes_SUMM_012.jpg","https://changes-ifr.s3.us-east-2.amazonaws.com/ss1/SUMM/double/a_first/Gogebic_Ormes_SUMM_013.jpg"
58687487,"27-854","ORMES","GOGEBIC",13,"August",1948,NA,NA,20.113,NA,19.5,46.27082,-89.65313,"https://changes-ifr.s3.us-east-2.amazonaws.com/ss1/SUMM/double/a_first/Gogebic_Ormes_SUMM_008.jpg","https://changes-ifr.s3.us-east-2.amazonaws.com/ss1/SUMM/double/a_first/Gogebic_Ormes_SUMM_009.jpg"
58687488,"27-858","OXBOWLITTLE","GOGEBIC",16,"July",1948,NA,NA,18.211,24.383,23.333,46.25721,-89.66649,"https://changes-ifr.s3.us-east-2.amazonaws.com/ss1/SUMM/double/a_first/Gogebic_OxbowLittle_SUMM_010.jpg","https://changes-ifr.s3.us-east-2.amazonaws.com/ss1/SUMM/double/a_first/Gogebic_OxbowLittle_SUMM_011.jpg"
58687489,"27-858","OXBOWLITTLE","GOGEBIC",28,"September",1978,NA,NA,38.446,25.907,NA,46.25721,-89.66649,"https://changes-ifr.s3.us-east-2.amazonaws.com/ss1/SUMM/double/a_first/Gogebic_OxbowLittle_SUMM_012.jpg","https://changes-ifr.s3.us-east-2.amazonaws.com/ss1/SUMM/double/a_first/Gogebic_OxbowLittle_SUMM_013.jpg"
58687490,"27-879","PIGEON","GOGEBIC",15,"August",1961,NA,NA,NA,6.4,NA,46.25693,-89.64315,"https://changes-ifr.s3.us-east-2.amazonaws.com/ss1/SUMM/double/a_first/Gogebic_Pigeon_SUMM_005.jpg","https://changes-ifr.s3.us-east-2.amazonaws.com/ss1/SUMM/double/a_first/Gogebic_Pigeon_SUMM_006.jpg"
58687491,"27-761","POMEROY","GOGEBIC",28,"September",1978,NA,NA,127.074,4.572,NA,46.27915,-89.5751,"https://changes-ifr.s3.us-east-2.amazonaws.com/ss1/SUMM/double/a_first/Gogebic_Pomeroy_SUMM_012.jpg","https://changes-ifr.s3.us-east-2.amazonaws.com/ss1/SUMM/double/a_first/Gogebic_Pomeroy_SUMM_013.jpg"
58687492,"27-761","POMEROY","GOGEBIC",22,"August",1956,NA,NA,127.074,4.572,17.778,46.27915,-89.5751,"https://changes-ifr.s3.us-east-2.amazonaws.com/ss1/SUMM/double/a_first/Gogebic_Pomeroy_SUMM_010.jpg","https://changes-ifr.s3.us-east-2.amazonaws.com/ss1/SUMM/double/a_first/Gogebic_Pomeroy_SUMM_011.jpg"
58687493,"27-27","POWWOW","GOGEBIC",30,"June",1961,NA,2.3,20.235,13.715,23.889,46.24304,-89.11954,"https://changes-ifr.s3.us-east-2.amazonaws.com/ss1/SUMM/double/a_first/Gogebic_PowWow_SUMM_003.jpg","https://changes-ifr.s3.us-east-2.amazonaws.com/ss1/SUMM/double/a_first/Gogebic_PowWow_SUMM_004.jpg"
58687494,"27-854","ORMES","GOGEBIC",12,"July",1962,NA,NA,20.113,19.811,NA,46.27082,-89.65313,"https://changes-ifr.s3.us-east-2.amazonaws.com/ss1/SUMM/double/a_first/Gogebic_Ormes_SUMM_010.jpg","https://changes-ifr.s3.us-east-2.amazonaws.com/ss1/SUMM/double/a_first/Gogebic_Ormes_SUMM_011.jpg"
58687495,"27-913","PLYMOUTH","GOGEBIC",6,"July",1960,NA,NA,10.522,4.572,22.222,46.30693,-89.75704,"https://changes-ifr.s3.us-east-2.amazonaws.com/ss1/SUMM/double/a_first/Gogebic_Plymouth_SUMM_008.jpg","https://changes-ifr.s3.us-east-2.amazonaws.com/ss1/SUMM/double/a_first/Gogebic_Plymouth_SUMM_009.jpg"
58687496,"27-777","POMEROYLITTLE","GOGEBIC",8,"August",1961,NA,NA,NA,5.486,NA,46.2686,-89.5701,"https://changes-ifr.s3.us-east-2.amazonaws.com/ss1/SUMM/double/a_first/Gogebic_PomeroyLittle_SUMM_007.jpg","https://changes-ifr.s3.us-east-2.amazonaws.com/ss1/SUMM/double/a_first/Gogebic_PomeroyLittle_SUMM_008.jpg"
58687497,"27-820","PRESQUEISLEFLOWAGE","GOGEBIC",7,"July",1961,NA,NA,NA,NA,NA,46.35829,-89.6974,"https://changes-ifr.s3.us-east-2.amazonaws.com/ss1/SUMM/double/a_first/Gogebic_PresqueIsleFlowage_SUMM_001.jpg","https://changes-ifr.s3.us-east-2.amazonaws.com/ss1/SUMM/double/a_first/Gogebic_PresqueIsleFlowage_SUMM_002.jpg"
58687498,"27-345","PRESQUEISLELITTLE","GOGEBIC",18,"July",1962,NA,NA,NA,NA,NA,46.23889,-89.60381,"https://changes-ifr.s3.us-east-2.amazonaws.com/ss1/SUMM/double/a_first/Gogebic_PresqueIsleLittle_SUMM_005.jpg","https://changes-ifr.s3.us-east-2.amazonaws.com/ss1/SUMM/double/a_first/Gogebic_PresqueIsleLittle_SUMM_006.jpg"
58687500,"27-345","PRESQUEISLELITTLE","GOGEBIC",26,"September",1978,NA,NA,NA,NA,16,46.23889,-89.60381,"https://changes-ifr.s3.us-east-2.amazonaws.com/ss1/SUMM/double/a_first/Gogebic_PresqueIsleLittle_SUMM_007.jpg","https://changes-ifr.s3.us-east-2.amazonaws.com/ss1/SUMM/double/a_first/Gogebic_PresqueIsleLittle_SUMM_008.jpg"
58687501,"27-916","RIDGE","GOGEBIC",9,"August",1962,NA,NA,NA,5.486,22.778,46.29304,-89.77788,"https://changes-ifr.s3.us-east-2.amazonaws.com/ss1/SUMM/double/a_first/Gogebic_Ridge_SUMM_001.jpg","https://changes-ifr.s3.us-east-2.amazonaws.com/ss1/SUMM/double/a_first/Gogebic_Ridge_SUMM_002.jpg"
58687502,"27-1016","REDBOAT","GOGEBIC",26,"September",1978,NA,NA,NA,NA,NA,46.34443,-89.77371,"https://changes-ifr.s3.us-east-2.amazonaws.com/ss1/SUMM/double/a_first/Gogebic_Redboat_SUMM_005.jpg","https://changes-ifr.s3.us-east-2.amazonaws.com/ss1/SUMM/double/a_first/Gogebic_Redboat_SUMM_006.jpg"
58687503,"27-1016","REDBOAT","GOGEBIC",20,"July",1960,NA,2.4,18.211,10.667,22.778,46.34443,-89.77371,"https://changes-ifr.s3.us-east-2.amazonaws.com/ss1/SUMM/double/a_first/Gogebic_Redboat_SUMM_003.jpg","https://changes-ifr.s3.us-east-2.amazonaws.com/ss1/SUMM/double/a_first/Gogebic_Redboat_SUMM_004.jpg"
58687504,"27-855","QUEEN","GOGEBIC",19,"June",1964,NA,NA,2.023,17.068,20.278,46.27475,-89.66197,"https://changes-ifr.s3.us-east-2.amazonaws.com/ss1/SUMM/double/a_first/Gogebic_Queen_SUMM_005.jpg","https://changes-ifr.s3.us-east-2.amazonaws.com/ss1/SUMM/double/a_first/Gogebic_Queen_SUMM_006.jpg"
58687505,"27-785","RANGE","GOGEBIC",11,"August",1961,NA,NA,NA,8.229,NA,46.25554,-89.61399,"https://changes-ifr.s3.us-east-2.amazonaws.com/ss1/SUMM/double/a_first/Gogebic_Range_SUMM_003.jpg","https://changes-ifr.s3.us-east-2.amazonaws.com/ss1/SUMM/double/a_first/Gogebic_Range_SUMM_004.jpg"
58687506,"27-748","STAUGUSTINE","GOGEBIC",10,"August",1962,NA,NA,NA,3.962,20.611,46.30466,-89.61106,"https://changes-ifr.s3.us-east-2.amazonaws.com/ss1/SUMM/double/a_first/Gogebic_StAugustine_SUMM_001.jpg","https://changes-ifr.s3.us-east-2.amazonaws.com/ss1/SUMM/double/a_first/Gogebic_StAugustine_SUMM_002.jpg"
58687507,"27-145","SCOUT","GOGEBIC",4,"June",1952,NA,NA,9.632,NA,NA,46.18054,-89.12649,"https://changes-ifr.s3.us-east-2.amazonaws.com/ss1/SUMM/double/a_first/Gogebic_Scout_SUMM_005.jpg","https://changes-ifr.s3.us-east-2.amazonaws.com/ss1/SUMM/double/a_first/Gogebic_Scout_SUMM_006.jpg"
58687508,"27-517","SUCKER","GOGEBIC",14,"July",1938,NA,NA,177.742,4.572,22.222,46.3037,-89.25364,"https://changes-ifr.s3.us-east-2.amazonaws.com/ss1/SUMM/double/a_first/Gogebic_Sucker_SUMM_010.jpg","https://changes-ifr.s3.us-east-2.amazonaws.com/ss1/SUMM/double/a_first/Gogebic_Sucker_SUMM_011.jpg"
58687509,"27-882","SUMMIT","GOGEBIC",14,"July",1961,NA,NA,8.499,8.534,23.333,46.25637,-89.62621,"https://changes-ifr.s3.us-east-2.amazonaws.com/ss1/SUMM/double/a_first/Gogebic_Summit_SUMM_003.jpg","https://changes-ifr.s3.us-east-2.amazonaws.com/ss1/SUMM/double/a_first/Gogebic_Summit_SUMM_004.jpg"
58687510,"27-726","SPIDER","GOGEBIC",19,"August",1963,NA,0.32,12.95,NA,18.111,46.25415,-89.46676,"https://changes-ifr.s3.us-east-2.amazonaws.com/ss1/SUMM/double/a_first/Gogebic_Spider_SUMM_003.jpg","https://changes-ifr.s3.us-east-2.amazonaws.com/ss1/SUMM/double/a_first/Gogebic_Spider_SUMM_004.jpg"
58687512,"27-16","TAYLOR","GOGEBIC",22,"August",1960,NA,0.8,65.965,12.191,23.333,46.24276,-89.04093,"https://changes-ifr.s3.us-east-2.amazonaws.com/ss1/SUMM/double/a_first/Gogebic_Taylor_SUMM_008.jpg","https://changes-ifr.s3.us-east-2.amazonaws.com/ss1/SUMM/double/a_first/Gogebic_Taylor_SUMM_009.jpg"
58687513,"27-1063","SUNDAY","GOGEBIC",28,"August",1951,NA,NA,93.08,2.133,20.1,46.48115,-89.96055,"https://changes-ifr.s3.us-east-2.amazonaws.com/ss1/SUMM/double/a_first/Gogebic_Sunday_SUMM_007.jpg","https://changes-ifr.s3.us-east-2.amazonaws.com/ss1/SUMM/double/a_first/Gogebic_Sunday_SUMM_008.jpg"
58687514,"27-911","TAPS","GOGEBIC",12,"July",1960,NA,NA,3.723,3.353,23.889,46.30832,-89.7501,"https://changes-ifr.s3.us-east-2.amazonaws.com/ss1/SUMM/double/a_first/Gogebic_Taps_SUMM_004.jpg","https://changes-ifr.s3.us-east-2.amazonaws.com/ss1/SUMM/double/a_first/Gogebic_Taps_SUMM_005.jpg"
58687515,"27-23","SUNS","GOGEBIC",10,"September",1958,NA,NA,11.635,13.715,NA,46.24304,-89.1001,"https://changes-ifr.s3.us-east-2.amazonaws.com/ss1/SUMM/double/a_first/Gogebic_Suns_SUMM_006.jpg","https://changes-ifr.s3.us-east-2.amazonaws.com/ss1/SUMM/double/a_first/Gogebic_Suns_SUMM_007.jpg"
58687516,"27-889","THRUSH","GOGEBIC",14,"July",1960,NA,NA,16.188,6.096,22.778,46.32082,-89.79315,"https://changes-ifr.s3.us-east-2.amazonaws.com/ss1/SUMM/double/a_first/Gogebic_Thrush_SUMM_005.jpg","https://changes-ifr.s3.us-east-2.amazonaws.com/ss1/SUMM/double/a_first/Gogebic_Thrush_SUMM_006.jpg"
58687517,"27-265","THOUSANDISLAND","GOGEBIC",26,"July",1938,NA,3.4,436.544,24.688,21.667,46.22915,-89.4001,"https://changes-ifr.s3.us-east-2.amazonaws.com/ss1/SUMM/double/a_first/Gogebic_ThousandIsland_SUMM_014.jpg","https://changes-ifr.s3.us-east-2.amazonaws.com/ss1/SUMM/double/a_first/Gogebic_ThousandIsland_SUMM_015.jpg"
58687518,"28-84","ARBUTUS","GRANDTRAVERSE",4,"August",1936,"boys and girls camps. numerous cottages. camping",0,159.854,13.411,25,44.66443,-85.51815,"https://changes-ifr.s3.us-east-2.amazonaws.com/ss1/SUMM/double/a_first/GrandTraverse_Arbutus_SUMM_017.jpg","https://changes-ifr.s3.us-east-2.amazonaws.com/ss1/SUMM/double/a_first/GrandTraverse_Arbutus_SUMM_018.jpg"
58687519,"28-106","BASS","GRANDTRAVERSE",3,"June",1954,NA,NA,36.018,5.791,18.333,44.69138,-85.70676,"https://changes-ifr.s3.us-east-2.amazonaws.com/ss1/SUMM/double/a_first/GrandTraverse_Bass26N_12W_S31_SUMM_004.jpg","https://changes-ifr.s3.us-east-2.amazonaws.com/ss1/SUMM/double/a_first/GrandTraverse_Bass26N_12W_S31_SUMM_005.jpg"
58687520,"28-84","ARBUTUS","GRANDTRAVERSE",17,"June",1968,NA,NA,NA,NA,20.556,44.66443,-85.51815,"https://changes-ifr.s3.us-east-2.amazonaws.com/ss1/SUMM/double/a_first/GrandTraverse_Arbutus_SUMM_019.jpg","https://changes-ifr.s3.us-east-2.amazonaws.com/ss1/SUMM/double/a_first/GrandTraverse_Arbutus_SUMM_020.jpg"
58687521,"27-119","WILSON","GOGEBIC",12,"July",1963,NA,NA,11.736,16.458,75,46.20693,-89.15843,"https://changes-ifr.s3.us-east-2.amazonaws.com/ss1/SUMM/double/a_first/Gogebic_Wilson_SUMM_005.jpg","https://changes-ifr.s3.us-east-2.amazonaws.com/ss1/SUMM/double/a_first/Gogebic_Wilson_SUMM_006.jpg"
58687522,"28-84","ARBUTUS","GRANDTRAVERSE",21,"June",1968,NA,NA,159.854,NA,NA,44.66443,-85.51815,"https://changes-ifr.s3.us-east-2.amazonaws.com/ss1/SUMM/double/a_first/GrandTraverse_Arbutus_SUMM_021.jpg","https://changes-ifr.s3.us-east-2.amazonaws.com/ss1/SUMM/double/a_first/GrandTraverse_Arbutus_SUMM_022.jpg"
58687523,"28-106","BASS","GRANDTRAVERSE",18,"June",1995,NA,NA,138.81,8.839,26.667,44.69138,-85.70676,"https://changes-ifr.s3.us-east-2.amazonaws.com/ss1/SUMM/double/a_first/GrandTraverse_Bass26N_12W_S31_SUMM_027.jpg","https://changes-ifr.s3.us-east-2.amazonaws.com/ss1/SUMM/double/a_first/GrandTraverse_Bass26N_12W_S31_SUMM_028.jpg"
58687524,"28-187","BOARDMAN","GRANDTRAVERSE",2,"June",1989,NA,NA,137.191,18.5,13,44.75667,-85.61472,"https://changes-ifr.s3.us-east-2.amazonaws.com/ss1/SUMM/double/a_first/GrandTraverse_Boardman_SUMM_015.jpg","https://changes-ifr.s3.us-east-2.amazonaws.com/ss1/SUMM/double/a_first/GrandTraverse_Boardman_SUMM_016.jpg"
58687525,"28-187","BOARDMAN","GRANDTRAVERSE",13,"July",1938,NA,4.6,137.11,19.506,19.6,44.75667,-85.61472,"https://changes-ifr.s3.us-east-2.amazonaws.com/ss1/SUMM/double/a_first/GrandTraverse_Boardman_SUMM_013.jpg","https://changes-ifr.s3.us-east-2.amazonaws.com/ss1/SUMM/double/a_first/GrandTraverse_Boardman_SUMM_014.jpg"
58687526,"28-101","BOARDMAN","GRANDTRAVERSE",16,"June",1986,NA,NA,NA,NA,NA,44.68547,-85.62687,"https://changes-ifr.s3.us-east-2.amazonaws.com/ss1/SUMM/double/a_first/GrandTraverse_Boardman_SUMM_017.jpg","https://changes-ifr.s3.us-east-2.amazonaws.com/ss1/SUMM/double/a_first/GrandTraverse_Boardman_SUMM_018.jpg"
58687527,"28-187","BOARDMAN","GRANDTRAVERSE",4,"August",1966,NA,NA,32.376,12.191,NA,44.75667,-85.61472,"https://changes-ifr.s3.us-east-2.amazonaws.com/ss1/SUMM/double/a_first/GrandTraverse_Boardman_SUMM_035.jpg","https://changes-ifr.s3.us-east-2.amazonaws.com/ss1/SUMM/double/a_first/GrandTraverse_Boardman_SUMM_036.jpg"
58687528,"28-187","BOARDMAN","GRANDTRAVERSE",5,"August",1966,NA,NA,32.376,12.191,NA,44.75667,-85.61472,"https://changes-ifr.s3.us-east-2.amazonaws.com/ss1/SUMM/double/a_first/GrandTraverse_Boardman_SUMM_039.jpg","https://changes-ifr.s3.us-east-2.amazonaws.com/ss1/SUMM/double/a_first/GrandTraverse_Boardman_SUMM_040.jpg"
58687529,"28-187","BOARDMAN","GRANDTRAVERSE",3,"August",1966,NA,NA,32.376,12.191,NA,44.75667,-85.61472,"https://changes-ifr.s3.us-east-2.amazonaws.com/ss1/SUMM/double/a_first/GrandTraverse_Boardman_SUMM_037.jpg","https://changes-ifr.s3.us-east-2.amazonaws.com/ss1/SUMM/double/a_first/GrandTraverse_Boardman_SUMM_038.jpg"
58687530,"28-132","BRIDGES","GRANDTRAVERSE",23,"August",1950,NA,NA,12.95,11.887,25.5,44.63915,-85.78537,"https://changes-ifr.s3.us-east-2.amazonaws.com/ss1/SUMM/double/a_first/GrandTraverse_Bridges_SUMM_010.jpg","https://changes-ifr.s3.us-east-2.amazonaws.com/ss1/SUMM/double/a_first/GrandTraverse_Bridges_SUMM_011.jpg"
58687531,"28-95","BROWNBRIDGEPOND","GRANDTRAVERSE",27,"July",1966,NA,NA,80.939,12.191,NA,44.64332,-85.50899,"https://changes-ifr.s3.us-east-2.amazonaws.com/ss1/SUMM/double/a_first/GrandTraverse_BrownBridgePond_SUMM_006.jpg","https://changes-ifr.s3.us-east-2.amazonaws.com/ss1/SUMM/double/a_first/GrandTraverse_BrownBridgePond_SUMM_007.jpg"
58687532,"28-110","CEDARHEDGE","GRANDTRAVERSE",11,"May",1967,NA,NA,78.915,21.03,12.778,44.66999,-85.78454,"https://changes-ifr.s3.us-east-2.amazonaws.com/ss1/SUMM/double/a_first/GrandTraverse_CedarHedge_SUMM_002.jpg","https://changes-ifr.s3.us-east-2.amazonaws.com/ss1/SUMM/double/a_first/GrandTraverse_CedarHedge_SUMM_003.jpg"
58687533,"28-95","BROWNBRIDGEPOND","GRANDTRAVERSE",23,"June",1986,NA,NA,72.845,NA,NA,44.64332,-85.50899,"https://changes-ifr.s3.us-east-2.amazonaws.com/ss1/SUMM/double/a_first/GrandTraverse_BrownBridgePond_SUMM_004.jpg","https://changes-ifr.s3.us-east-2.amazonaws.com/ss1/SUMM/double/a_first/GrandTraverse_BrownBridgePond_SUMM_005.jpg"
58687534,"28-95","BROWNBRIDGEPOND","GRANDTRAVERSE",26,"July",1966,NA,NA,80.939,12.191,NA,44.64332,-85.50899,"https://changes-ifr.s3.us-east-2.amazonaws.com/ss1/SUMM/double/a_first/GrandTraverse_BrownBridgePond_SUMM_008.jpg","https://changes-ifr.s3.us-east-2.amazonaws.com/ss1/SUMM/double/a_first/GrandTraverse_BrownBridgePond_SUMM_009.jpg"
58687535,"28-114","CHRISTMASTREE","GRANDTRAVERSE",6,"February",1959,NA,NA,1.214,7.315,NA,44.67675,-85.80555,"https://changes-ifr.s3.us-east-2.amazonaws.com/ss1/SUMM/double/a_first/GrandTraverse_ChristmasTree_SUMM_006.jpg","https://changes-ifr.s3.us-east-2.amazonaws.com/ss1/SUMM/double/a_first/GrandTraverse_ChristmasTree_SUMM_007.jpg"
58687536,"28-166","DOLLAR","GRANDTRAVERSE",28,"June",1968,NA,NA,14.974,NA,14.444,44.69054,-85.41787,"https://changes-ifr.s3.us-east-2.amazonaws.com/ss1/SUMM/double/a_first/GrandTraverse_Dollar_SUMM_010.jpg","https://changes-ifr.s3.us-east-2.amazonaws.com/ss1/SUMM/double/a_first/GrandTraverse_Dollar_SUMM_011.jpg"
58687537,"28-166","DOLLAR","GRANDTRAVERSE",20,"July",1966,NA,NA,10.117,NA,NA,44.69054,-85.41787,"https://changes-ifr.s3.us-east-2.amazonaws.com/ss1/SUMM/double/a_first/GrandTraverse_Dollar_SUMM_012.jpg","https://changes-ifr.s3.us-east-2.amazonaws.com/ss1/SUMM/double/a_first/GrandTraverse_Dollar_SUMM_013.jpg"
58687538,"28-86","CHANDLER","GRANDTRAVERSE",1,"May",1953,NA,NA,24.282,9.144,NA,44.68749,-85.52621,"https://changes-ifr.s3.us-east-2.amazonaws.com/ss1/SUMM/double/a_first/GrandTraverse_Chandler_SUMM_006.jpg","https://changes-ifr.s3.us-east-2.amazonaws.com/ss1/SUMM/double/a_first/GrandTraverse_Chandler_SUMM_007.jpg"
