"subject_id","begin_date_day","begin_date_month","begin_date_year","county","development","do_below_thermo_ppm","lake_area_ha","lakename","LAT_DD","LONG_DD","max_depth_min_m","new_key","secchi_min_m","temp_surface_min_c"
58643103,NA,"August",1925,"ALCONA",NA,NA,NA,"HUBBARD",44.80416,-83.55954,NA,"1-165",NA,NA
58643104,NA,"April",1926,"ALCONA",NA,NA,NA,"HUBBARD",44.80416,-83.55954,NA,"1-165",NA,NA
58643105,29,"July",1930,"KALKASKA",NA,NA,NA,"BASS",44.80211,-84.88414,NA,"40-244",NA,NA
58643107,NA,"April",1926,"ALPENA",NA,NA,NA,"BEAVER",44.93777,-83.79899,NA,"4-1",NA,NA
58643108,15,"February",1926,"KALKASKA",NA,NA,NA,"BEAR",44.72916,-84.94399,NA,"40-104",NA,NA
58643109,5,"August",1930,"KALKASKA",NA,NA,NA,"BLACKMIDDLE",44.72916,-84.92593,NA,"40-102",NA,NA
58643110,7,"August",1930,"KALKASKA",NA,NA,NA,"BEAR",44.72916,-84.94399,NA,"40-104",NA,NA
58643111,9,"August",1930,"KALKASKA",NA,NA,NA,"BLACKUPPER",44.73499,-84.92343,NA,"40-103",NA,NA
58643112,2,"August",1930,"KALKASKA",NA,NA,NA,"BLACKSOUTH",44.72082,-84.92482,NA,"40-110",NA,NA
58643113,28,"July",1930,"KALKASKA",NA,NA,NA,"BLUELITTLE",44.8011,-84.89426,NA,"40-247",NA,NA
58643114,12,"August",1930,"KALKASKA",NA,NA,NA,"BLUE",44.74638,-85.15843,NA,"40-158",NA,NA
58643116,28,"July",1930,"KALKASKA",NA,NA,NA,"BLUENORTH",44.81666,-84.89649,NA,"40-216",NA,NA
58643117,29,"July",1930,"KALKASKA",NA,NA,NA,"CROOKED",44.85036,-84.90764,NA,"40-203",NA,NA
58643118,5,"August",1930,"KALKASKA",NA,NA,NA,"CRANBERRY",44.68082,-84.96732,NA,"40-27",NA,NA
58643119,24,"August",1930,"KALKASKA",NA,NA,NA,"CROYNORTH",44.81471,-85.09343,NA,"40-307",NA,NA
58643120,21,"July",1930,"KALKASKA",NA,NA,NA,"EAGLE",44.83582,-84.94621,NA,"40-209",NA,NA
58643121,27,"August",1930,"KALKASKA",NA,NA,NA,"DARBY",44.7236,-85.31399,NA,"40-188",NA,NA
58643122,2,"September",1930,"KALKASKA",NA,NA,NA,"EAST",44.63665,-85.15621,NA,"40-61",NA,NA
58643123,3,"August",1930,"KALKASKA",NA,NA,NA,"EAST",44.75943,-84.95399,NA,"40-96",NA,NA
58643124,4,"July",1930,"KALKASKA",NA,NA,NA,"FIVE",44.76471,-85.06093,NA,"40-127",NA,NA
58643125,5,"July",1930,"KALKASKA",NA,NA,NA,"GRASS",44.7561,-85.00426,NA,"40-116",NA,NA
58643126,29,"August",1930,"KALKASKA",NA,NA,NA,"GUERNSEYBIG",44.7111,-85.32704,NA,"40-192",NA,NA
58643127,29,"August",1930,"KALKASKA",NA,NA,NA,"GUERNSEYLITTLESOUTH",44.71082,-85.31954,NA,"40-199",NA,NA
58643128,27,"August",1930,"KALKASKA",NA,NA,NA,"GUERNSEYLITTLENORTH",44.71404,-85.31835,NA,"40-189",NA,NA
58643129,26,"August",1930,"KALKASKA",NA,NA,NA,"HAYNES",44.75489,-85.32042,NA,"40-175",NA,NA
58643130,9,"September",1930,"KALKASKA",NA,NA,NA,"INGERSOLL",44.56804,-85.2276,NA,"40-19",NA,NA
58643131,25,"August",1930,"KALKASKA",NA,NA,NA,"ISLAND",44.7261,-85.29149,NA,"40-187",NA,NA
58643132,17,"July",1930,"KALKASKA",NA,NA,NA,"INDIAN",44.80769,-84.93051,NA,"40-236",NA,NA
58643133,4,"August",1930,"KALKASKA",NA,NA,NA,"JOHNSON",44.69221,-84.95093,NA,"40-112",NA,NA
58643134,19,"August",1930,"KALKASKA",NA,NA,NA,"KALKASKAMILL",NA,NA,NA,NA,NA,NA
58643135,30,"June",1930,"KALKASKA",NA,NA,NA,"KETTLE",44.72888,-85.14176,NA,"40-167",NA,NA
58643136,11,"August",1930,"KALKASKA",NA,NA,NA,"LOGLITTLE",44.74554,-85.14343,NA,"40-160",NA,NA
58643137,18,"August",1930,"KALKASKA",NA,NA,NA,"KETTLE",44.72888,-85.14176,NA,"40-167",NA,NA
58643138,3,"September",1930,"KALKASKA",NA,NA,NA,"LOON",44.67527,-85.2076,NA,"40-47",NA,NA
58643139,9,"September",1930,"KALKASKA",NA,NA,NA,"LONG",44.57193,-85.29871,NA,"40-16",NA,NA
58643140,5,"July",1930,"KALKASKA",NA,NA,NA,"LOST",44.76388,-85.03621,NA,"40-123",NA,NA
58643141,5,"August",1930,"KALKASKA",NA,NA,NA,"MALLARD",44.73416,-84.95482,NA,"40-105",NA,NA
58643142,20,"July",1930,"KALKASKA",NA,NA,NA,"MACNEIL",44.83999,-84.93815,NA,"40-211",NA,NA
58643143,17,"July",1930,"KALKASKA",NA,NA,NA,"PAPOOSE",44.79916,-84.9326,NA,"40-237",NA,NA
58643145,13,"July",1930,"KALKASKA",NA,NA,NA,"PICKEREL",44.80027,-84.97732,NA,"40-295",NA,NA
58643146,2,"July",1930,"KALKASKA",NA,NA,NA,"POST",44.75166,-85.0151,NA,"40-133",NA,NA
58643147,NA,NA,1930,"KALKASKA",NA,NA,NA,"PERCH",44.7536,-85.02287,NA,"40-137",NA,NA
58643148,14,"August",1930,"KALKASKA",NA,NA,NA,"PLACID",44.73999,-85.10343,NA,"40-162",NA,NA
58643149,4,"September",1930,"KALKASKA",NA,NA,NA,"PRICE",44.62971,-85.17343,NA,"40-57",NA,NA
58643150,16,"August",1930,"KALKASKA",NA,NA,NA,"SELKIRKNORTH",44.73638,-85.12287,NA,"40-164",NA,NA
58643151,9,"November",1930,"KALKASKA",NA,NA,NA,"SICKLE",44.55721,-85.24093,NA,"40-21",NA,NA
58643152,17,"August",1930,"KALKASKA",NA,NA,NA,"SELKIRKSOUTH",44.73054,-85.12704,NA,"40-165",NA,NA
58643153,24,"August",1930,"KALKASKA",NA,NA,NA,"SMITH",44.76499,-85.32704,NA,"40-174",NA,NA
58643154,26,"August",1930,"KALKASKA",NA,NA,NA,"SMITHS",44.76499,-85.32704,NA,"40-174",NA,NA
58643155,18,"July",1930,"KALKASKA",NA,NA,NA,"SQUAW",44.80527,-84.91732,NA,"40-240",NA,NA
58643156,20,"July",1930,"KALKASKA",NA,NA,NA,"WADDELLS",44.83916,-84.94176,NA,"40-212",NA,NA
58643157,11,"July",1930,"KALKASKA",NA,NA,NA,"TIMBER",44.8286,-84.99149,NA,"40-278",NA,NA
58643158,12,"July",1930,"KALKASKA",NA,NA,NA,"TWINLITTLE",44.81693,-84.9701,NA,"40-223",NA,NA
58643160,9,"September",1930,"KALKASKA",NA,NA,NA,"WELLMAN",NA,NA,NA,NA,NA,NA
58643161,21,"August",1930,"KALKASKA",NA,NA,NA,"WHEELER",44.79221,-85.10399,NA,"40-311",NA,NA
58643170,NA,NA,1926,"NEWAYGO",NA,NA,NA,"NICHOLS",43.72638,-85.90621,NA,"62-358",NA,NA
58643172,10,"August",1938,"KEWEENAW",NA,NA,NA,"MANGANESE",47.45471,-87.88316,NA,"42-66",NA,NA
58643173,12,"October",1930,"WASHTENAW",NA,NA,NA,"CROOKED",42.32527,-84.11287,NA,"81-147",NA,NA
58686522,9,"August",1890,NA,NA,NA,NA,NA,NA,NA,NA,NA,NA,NA
58687243,14,"September",1949,"ALCONA",NA,NA,36.22,"CROOKED",44.73555,-83.86954,8.534,"1-138",2.438,17.4
58687244,19,"July",1937,"ALCONA","few cottages for rent, in barton city, grocery store, gas station, tavern.",3.9,78.146,"JEWELL",44.68055,-83.60676,6.096,"1-99",3.657,21.667
58687245,26,"August",1942,"ALCONA",NA,1.5,3581.546,"HUBBARD",44.80416,-83.55954,26.516,"1-165",2.133,20.056
58687247,19,"July",1937,"ALCONA","none",NA,4.553,"CLEAR",44.62519,-83.74735,2.438,"1-83",1.829,22.778
58687248,26,"August",1942,"ALCONA",NA,1.5,3581.546,"HUBBARD",44.80416,-83.55954,26.516,"1-165",2.133,20.056
58687249,6,"September",1949,"ALCONA",NA,NA,36.625,"NORTH",44.57055,-83.69899,28.04,"1-16",2.133,19.6
58687250,9,"September",1949,"ALCONA",NA,NA,46.54,"VAUGHN",44.53916,-83.7276,19.811,"1-29",1.219,18.3
58687251,22,"July",1937,"ALCONA",NA,0.1,48.563,"VAUGHN",44.53916,-83.7276,21.03,"1-29",1.676,23.333
58687252,17,"June",1963,"ALGER",NA,NA,50.83,"COOK",46.24721,-86.78232,5.181,"2-95",1.524,NA
58687253,22,"June",1953,"ALGER",NA,NA,309.591,"BEAVER",46.56832,-86.33871,11.887,"2-720",NA,17.222
58687254,7,"July",1949,"ALGER",NA,NA,50.587,"COOK",46.24721,-86.78232,6.096,"2-95",1.219,22.222
58687255,8,"August",1977,"ALGER",NA,NA,98.341,"DEER",46.47749,-86.96732,21.335,"2-461",NA,20
58687256,20,"August",1948,"ALGER",NA,1.9,98.341,"DEER",46.47749,-86.96732,21.945,"2-461",NA,21.8
58687257,26,"June",1963,"ALGER",NA,NA,26.71,"READY",46.26276,-86.71121,2.438,"2-212",2.438,23.889
58687258,21,"July",1937,"ALLEGAN",NA,NA,87.009,"DUMONT",42.59249,-85.86454,15.544,"3-153",4.572,26.1
58687259,29,"August",1955,"ALGER",NA,NA,101.174,"KINGSTON",46.58221,-86.2201,9.753,"2-627",3.657,16.667
58687260,13,"July",1950,"ALGER",NA,NA,4.047,"IRWIN",46.21971,-86.62621,12.191,"2-32",NA,21.667
58687261,12,"July",1949,"ALGER",NA,6.7,253.946,"GRANDSABLE",46.63832,-86.03871,25.907,"2-775",3.048,21.667
58687262,26,"June",1949,"ALGER",NA,NA,60.704,"TROUT",46.23418,-86.85877,2.133,"2-104",NA,21.111
58687263,21,"July",1937,"ALLEGAN",NA,0,87.009,"DUMONT",42.59249,-85.86454,15.544,"3-153",NA,26.1
58687264,25,"August",1954,"ALLEGAN",NA,NA,60.704,"OSTERHAUT",42.43499,-86.04009,5.181,"3-71",2.133,NA
58687265,16,"August",1950,"ALPENA",NA,0.9,269.122,"BEAVER",44.93777,-83.79899,23.468,"4-1",3.048,21.667
58687266,26,"July",1950,"ALPENA","5",NA,39.458,"FOURMILEIMPOUNDMENT",45.09305,-83.50301,6.705,"4-16",2.438,20
58687267,12,"August",1937,"BALAGA",NA,NA,25.577,"SPRUCE",46.50693,-88.17677,10.972,"7-6",1.219,NA
58687268,NA,"April",1926,"ALPENA",NA,NA,NA,"BEAVER",44.93777,-83.79899,NA,"4-1",NA,NA
58687269,4,"August",1936,"BARRY",NA,NA,6.799,"MCDONALD",42.63332,-85.49065,3.048,"8-613",3.048,25.3
58687270,7,"August",1936,"BARRY",NA,NA,13.112,"DEEP",42.62082,-85.45843,10.667,"8-619",3.657,26.1
58687271,4,"August",1942,"CHARLEVOIX",NA,NA,16.188,"BARNEYS",45.71221,-85.55815,4.572,"15-70",2.743,22.6
58687272,30,"June",1960,"CHARLEVOIX",NA,NA,18.211,"BARNEYS",45.71221,-85.55815,3.657,"15-70",3.657,20.556
58687273,30,"June",1960,"CHARLEVOIX",NA,NA,18.211,"BARNEYS",45.71221,-85.55815,3.657,"15-70",3.657,20.556
58687274,4,"August",1942,"CHARLEVOIX",NA,NA,16.188,"BARNEYS",45.71221,-85.55815,4.572,"15-70",2.743,22.6
58687275,6,"August",1937,"CHARLEVOIX",NA,6.2,13.153,"BOOTH",45.19908,-84.73541,10.363,"15-2",4.267,23.7
58687276,6,"August",1937,"CHARLEVOIX",NA,6.2,13.153,"BOOTH",45.19908,-84.73541,10.363,"15-2",4.267,23.7
58687277,21,"August",1950,"CHARLEVOIX",NA,NA,179.28,"DEER",45.16832,-84.9776,6.705,"15-15",2.438,16.667
58687278,5,"August",1942,"CHARLEVOIX",NA,NA,60.704,"FOX",45.65165,-85.56676,5.486,"15-72",2.743,23.4
58687279,7,"August",1942,"CHARLEVOIX",NA,NA,202.347,"FONT",45.7386,-85.54288,2.133,"15-76",1.676,22.9
58687280,4,"July",1960,"CHARLEVOIX",NA,NA,154.593,"FONT",45.7386,-85.54288,2.438,"15-76",2.438,18.333
58687281,28,"June",1960,"CHARLEVOIX",NA,NA,197.896,"GENESERATH",45.59804,-85.53899,15.239,"15-66",3.657,20
58687282,29,"June",1960,"CHARLEVOIX",NA,NA,30.352,"FOX",45.65165,-85.56676,5.791,"15-72",1.524,21.111
58687283,6,"August",1942,"CHARLEVOIX","10",1.4,283.286,"GENESERATH",45.59804,-85.53899,13.715,"15-66",3.657,23.3
58687284,18,"August",1941,"CHARLEVOIX",NA,NA,48.604,"HOFFMAN",45.13193,-84.78038,6.705,"15-6",2.286,19.6
58687285,6,"August",1942,"CHARLEVOIX",NA,NA,40.469,"GREENS",45.63332,-85.58343,0.914,"15-75",NA,21.667
58687286,28,"July",1959,"CHARLEVOIX",NA,NA,26.305,"ROUND",45.31665,-85.25454,18.287,"15-61",3.962,22.222
58687287,15,"July",1955,"CHARLEVOIX",NA,NA,6879.806,"SUMM",45.26665,-85.13343,31.088,"15-21",2.133,23.2
58687288,6,"August",1915,"CHARLEVOIX",NA,NA,NA,"SUMM",45.26665,-85.13343,NA,"15-21",NA,NA
58687289,22,"July",1959,"CHARLEVOIX",NA,5.9,6985.026,"SUMM",45.26665,-85.13343,37.184,"15-21",3.048,21.667
58687290,16,"August",1941,"CHARLEVOIX",NA,NA,196.074,"THUMB",45.19166,-84.7626,46.327,"15-3",4.115,21.1
58687291,27,"August",1950,"CHARLEVOIX",NA,NA,52.61,"SUSAN",45.3261,-85.18121,4.572,"15-56",3.048,17.778
58687292,4,"August",1926,"CHARLEVOIX",NA,NA,NA,"SUMM",45.26665,-85.13343,NA,"15-21",NA,NA
58687293,11,"July",1945,"CHARLEVOIX",NA,4.2,NA,"WALLOON",45.27499,-85.0001,NA,"15-25",2.438,19.444
58687294,9,"August",1957,"CHARLEVOIX",NA,5.5,1748.28,"WALLOON",45.27499,-85.0001,30.479,"15-25",3.048,21.111
58687295,3,"July",1945,"CHEBOYGAN",NA,NA,11.129,"COCHRAN",45.40666,-84.55121,3.657,"16-186",NA,22.778
58687296,1,"July",1939,"CHEBOYGAN",NA,5.08,4099.555,"BLACK",45.46666,-84.26676,15.239,"16-144",3.657,21.111
58687297,NA,"July",1955,"CHEBOYGAN",NA,3.08,6758.397,"BURT",45.46666,-84.66676,22.249,"16-193",1.829,23.278
58687298,15,"August",1932,"CHEBOYGAN","on state forest",NA,73.25,"DOG",45.28388,-84.39871,1.829,"16-18",NA,NA
58687299,3,"July",1945,"CHEBOYGAN",NA,NA,11.129,"COCHRAN",45.40666,-84.55121,3.657,"16-186",NA,22.778
58687301,15,"August",1932,"CHEBOYGAN","part of state forest & game refuge",NA,73.25,"DOG",45.28388,-84.39871,1.829,"16-18",NA,NA
58687303,21,"June",1959,"CHEBOYGAN",NA,0,1373.938,"DOUGLAS",45.5811,-84.69704,24.383,"16-252",3.048,20
58687304,NA,"July",1956,"CHEBOYGAN",NA,8.9,6730.069,"MULLETT",45.5361,-84.51676,44.803,"16-192",3.048,18.889
58687305,28,"July",1932,"CHEBOYGAN","none ",2.3,2.428,"HEMLOCK",45.19971,-84.40788,20,"16-32",NA,21.111
58687307,28,"July",1932,"CHEBOYGAN","none",2.3,2.428,"HEMLOCK",45.19971,-84.40788,20,"16-32",NA,21.111
58687308,5,"July",1945,"CHEBOYGAN",NA,NA,21.651,"ROBERTS",45.40138,-84.55649,1.219,"16-191",1.219,22.778
58687309,14,"August",1942,"CHEBOYGAN",NA,15.6,29.543,"SILVER",45.26943,-84.63288,27.431,"16-82",6.629,21.8
58687310,15,"August",1931,"CHEBOYGAN","on ranch. ranch buildings on shore of lake.",NA,61.109,"SILVER",45.20471,-84.31732,NA,"16-14",3.1,NA
58687311,NA,"July",1956,"CHEBOYGAN",NA,8.9,6730.069,"MULLETT",45.5361,-84.51676,44.803,"16-192",3.048,18.889
58687312,5,"July",1945,"CHEBOYGAN",NA,NA,21.651,"ROBERTS",45.40138,-84.55649,1.219,"16-191",1.219,22.778
58687313,14,"August",1942,"CHEBOYGAN",NA,2.9,29.543,"SILVER",45.26943,-84.63288,27.431,"16-82",6.4,21.111
58687314,15,"August",1931,"CHEBOYGAN","on ranch. ranch buildings on shore of lake.",NA,61.109,"SILVER",45.20471,-84.31732,NA,"16-14",3.1,NA
58687315,14,"August",1942,"CHEBOYGAN",NA,15.6,29.543,"SILVER",45.26943,-84.63288,27.431,"16-82",6.629,21.8
58687316,14,"August",1942,"CHEBOYGAN",NA,15.6,29.543,"SILVER",45.26943,-84.63288,27.431,"16-82",6.629,21.8
58687317,14,"August",1942,"CHEBOYGAN",NA,0,29.543,"SILVER",45.26943,-84.63288,27.431,"16-82",6.629,21.8
58687318,14,"August",1942,"CHEBOYGAN",NA,2.9,29.543,"SILVER",45.26943,-84.63288,27.431,"16-82",6.4,21.111
58687319,22,"July",1943,"CHEBOYGAN",NA,NA,12.546,"WEBER",45.29804,-84.72426,12.191,"16-142",4.572,22.222
58687320,22,"July",1943,"CHEBOYGAN",NA,9.5,NA,"WEBER",45.29804,-84.72426,NA,"16-142",4.572,22.222
58687321,22,"July",1943,"CHEBOYGAN",NA,11.2,NA,"WEBER",45.29804,-84.72426,NA,"16-142",4.572,22.222
58687322,22,"July",1943,"CHEBOYGAN",NA,NA,12.546,"WEBER",45.29804,-84.72426,12.191,"16-142",4.572,22.222
58687323,26,"August",1948,"CHIPPEWA",NA,2.4,12.141,"ANDRUS",NA,NA,7.62,NA,5.181,23.9
58687324,13,"August",1969,"CHIPPEWA",NA,NA,9.713,"ARBUTUS",46.3161,-84.91593,1.829,"17-261",1.829,22.222
58687325,2,"June",1954,"CHIPPEWA",NA,NA,14.164,"ANDRUS",NA,NA,7.62,NA,NA,13.333
58687326,1,"July",1971,"CHIPPEWA",NA,NA,226.629,"CARP",46.18332,-85.04177,10.667,"17-209",NA,22.778
58687327,8,"July",1953,"CHIPPEWA","40",NA,333.873,"CARIBOU",45.99582,-83.99454,6.096,"17-47",3.962,16.667
58687328,21,"September",1942,"CHIPPEWA",NA,NA,3.44,"DUKES",46.26138,-84.44177,16.458,"17-240",NA,16.667
58687329,7,"July",1947,"CHIPPEWA",NA,NA,89.033,"FRENCHMANS",46.1836,-85.01565,8.382,"17-211",NA,21.6
58687330,6,"July",1950,"CHIPPEWA",NA,NA,3.764,"DUKES",46.26138,-84.44177,15.849,"17-240",NA,23.889
58687331,3,"July",1947,"CHIPPEWA",NA,NA,226.629,"CARP",46.18332,-85.04177,10.667,"17-209",NA,22
58687332,1,"July",1971,"CHIPPEWA",NA,NA,89.033,"FRENCHMANS",46.1836,-85.01565,6.096,"17-211",NA,23.333
58687333,11,"October",1949,"CHIPPEWA",NA,NA,7.568,"HIGHBANKS",46.36443,-84.86677,12.191,"17-331",NA,15
58687334,6,"September",1950,"CHIPPEWA",NA,NA,7.568,"HIGHBANKS",46.36443,-84.86677,12.801,"17-331",NA,18.5
58687335,6,"July",1960,"CHIPPEWA",NA,NA,9.47,"GARLINGHOUSE",46.29471,-84.55816,2.438,"17-244",NA,18.889
58687336,26,"August",1948,"CHIPPEWA",NA,NA,17.402,"JOHNSON",46.42471,-85.04427,4.572,"17-423",NA,24.6
58687337,9,"August",1950,"CHIPPEWA",NA,NA,26.305,"KINROSS",46.26804,-84.50343,3.657,"17-247",NA,21.111
58687338,12,"July",1961,"CHIPPEWA",NA,NA,49.089,"MCNEARNEY",46.42721,-84.9576,7.924,"17-413",7.62,20
58687339,19,"July",1955,"CHIPPEWA",NA,3,59.045,"MONACLE",46.47416,-84.64593,16.763,"17-403",4.877,22.778
58687340,1,"October",1955,"CHIPPEWA",NA,NA,93.08,"PIATT",46.42249,-85.01732,18.287,"17-340",NA,19.444
58687342,25,"July",1955,"CHIPPEWA",NA,NA,7.608,"SOLDIER",46.34888,-84.86621,6.4,"17-327",3.048,22.778
58687343,14,"July",1953,"CHIPPEWA",NA,8.5,106.839,"TROUT",45.99193,-84.1076,7.315,"17-57",4.419,26.111
58687344,10,"July",1947,"CHIPPEWA",NA,NA,6.475,"WALKER",46.31749,-84.9801,NA,"17-265",NA,24.2
58687345,1,"July",1971,"CHIPPEWA",NA,NA,12.303,"TROUT",46.19388,-84.78065,3.657,"17-190",NA,21.667
58687346,11,"June",1938,"CLARE",NA,NA,70.822,"BUDD",44.02027,-84.79426,10.363,"18-206",3.353,19
58687347,10,"August",1950,"CLARE",NA,NA,5.504,"BLUEGILL",44.10416,-84.76982,10.972,"18-295",3.048,25
58687348,13,"September",1952,"CLARE",NA,NA,16.188,"BAILEY",43.89166,-84.65148,11.734,"18-2",2.286,23.889
58687349,9,"October",1967,"CLARE","80",NA,47.754,"ARNOLD",44.06943,-84.75204,25.907,"18-197",NA,13.667
58687350,11,"July",1964,"CLARE",NA,NA,1.497,"BREMAN",43.9761,-84.70898,5.181,"18-84",NA,NA
58687351,20,"June",1956,"CLARE",NA,NA,42.898,"CRANBERRY",44.05749,-84.74371,6.096,"18-196",3.353,26.111
58687352,4,"August",1941,"CLARE",NA,1.1,106.718,"CROOKED",43.84749,-85.01482,22.249,"18-69",2.743,25
58687353,4,"August",1941,"CLARE",NA,1.1,106.718,"CROOKED",43.84749,-85.01482,22.249,"18-69",2.743,25
58687354,19,"September",1962,"CLARE",NA,NA,1.214,"CURREY",43.89728,-85.02435,1.829,"18-55",NA,13.333
58687355,11,"August",1964,"CLARE",NA,NA,5.504,"DEADMANS",43.83277,-84.92454,NA,"18-50",NA,NA
58687356,21,"September",1948,"CLARE",NA,NA,165.925,"EIGHTPOINT",43.83999,-85.07343,7.62,"18-66",NA,NA
58687357,11,"August",1964,"CLARE",NA,NA,10.927,"FARWELLMILL",43.83304,-84.87732,2.743,"18-49",NA,NA
58687358,15,"July",1954,"CLARE",NA,NA,54.229,"GEORGE",43.95027,-84.92787,7.62,"18-125",2.133,26.111
58687359,10,"October",1960,"CLARE",NA,NA,4.047,"GRASS",43.8211,-84.97759,6.096,"18-83",NA,NA
58687360,15,"August",1963,"CLARE",NA,NA,1.764,"GREENPINE",43.91332,-85.01676,12.191,"18-177",NA,22.889
58687361,1,"September",1960,"CLARE",NA,NA,65.156,"LILY",43.99443,-84.90315,2.438,"18-123",1.829,26.167
58687362,1,"October",1959,"CLARE",NA,NA,36.423,"HALFMOON",43.90221,-84.94815,6.096,"18-31",NA,NA
58687363,12,"August",1950,"CLARE",NA,0,84.986,"LONG",44.09388,-84.76621,23.164,"18-296",2.895,22.778
58687364,5,"August",1950,"CLARE",NA,0.3,17.402,"LONGLITTLE",44.02638,-84.7851,18.592,"18-215",3.81,22.222
58687365,31,"August",1960,"CLARE",NA,NA,16.997,"SUTHERLAND",44.02471,-84.76926,3.048,"18-214",3.048,25.889
58687366,8,"September",1960,"CLARE",NA,NA,80.939,"MUDBIG",43.90027,-85.07426,1.829,"18-57",NA,27.667
58687367,13,"July",1962,"CLARE",NA,NA,40.469,"SHAMROCK",43.83123,-84.76083,3.048,"18-12",NA,23.889
58687368,17,"August",1950,"CLARE",NA,0,22.056,"SILVER",43.91888,-84.96565,15.849,"18-150",4.724,22.778
58687369,17,"July",1954,"CLARE",NA,NA,16.188,"SHINGLE",43.96388,-84.95371,10.667,"18-124",3.048,26.667
58687370,17,"August",1938,"CLINTON",NA,NA,0.724,"BURKE",42.80916,-84.38704,11.887,"19-15",3.861,25.3
58687371,16,"August",1950,"CLARE",NA,0,20.235,"WINDOVER",43.95721,-84.99954,20.725,"18-160",3.962,25
58687372,25,"July",1991,"CLINTON",NA,NA,17.402,"MUSKRAT",42.9111,-84.58982,NA,"19-98",0.61,25
58687373,15,"August",1938,"CLINTON",NA,NA,75.152,"PARK",42.78971,-84.43982,8.229,"19-21",1.422,26
58687374,19,"August",1938,"CLINTON",NA,NA,10.805,"ROSE",42.79443,-84.39232,2.743,"19-16",1.829,27.222
58687375,NA,"August",1946,"CRAWFORD",NA,NA,5.261,"BRIGHT",44.72916,-84.68482,12.191,"20-63",5.181,20.1
58687376,NA,"August",1946,"CRAWFORD",NA,3,9.308,"GLORY",44.7316,-84.68352,14.325,"20-62",NA,21.5
58687377,14,"September",1962,"CRAWFORD",NA,NA,NA,"BRIGHT",44.72916,-84.68482,NA,"20-63",NA,NA
58687378,19,"May",1960,"CRAWFORD",NA,NA,NA,"BRIGHT",44.72916,-84.68482,NA,"20-63",NA,NA
58687379,4,"August",1937,"CRAWFORD",NA,6,5.585,"HOWE",44.68749,-84.81482,7.315,"20-75",3.81,23.5
58687380,4,"August",1937,"CRAWFORD",NA,6,5.585,"HOWES",44.68749,-84.81482,7.315,"20-75",3.81,23.5
58687381,30,"July",1937,"DELTA","8",NA,184.136,"ROUND",46.16084,-86.74976,16.763,"2-127",2.133,19.444
58687382,NA,NA,1972,"DELTA",NA,NA,NA,"ROUND",46.16084,-86.74976,NA,"2-127",NA,NA
58687384,26,"July",1954,"CRAWFORD",NA,5.3,777.013,"MARGRETHE",44.65054,-84.78732,19.811,"20-44",3.962,21.111
58687385,25,"August",1947,"CRAWFORD",NA,NA,NA,"KPBIG",44.79082,-84.54871,8.229,"20-94",NA,26.667
58687386,17,"July",1941,"GENESSE",NA,0,220.425,"LOBDELL",42.79065,-83.84436,23.773,"25-11",2.591,22.2
58687387,19,"August",1950,"GLADWIN",NA,NA,4.087,"CEDAR",44.13749,-84.34954,10.058,"26-62",3.2,23.889
58687388,6,"September",1955,"GENESSE",NA,NA,341.967,"FENTON",42.83471,-83.71537,28.04,"25-35",3.962,20.556
58687389,NA,"January",1959,"GLADWIN",NA,NA,28.733,"ELK",44.15777,-84.35982,10.667,"26-57",NA,24.444
58687390,19,"August",1950,"GLADWIN",NA,NA,4.856,"BLUE",44.12249,-84.56121,14.63,"26-37",2.133,21.111
58687391,25,"August",1938,"GLADWIN",NA,NA,5.382,"HOISTER",44.14166,-84.56676,9.448,"26-33",3.734,22.5
58687392,23,"August",1938,"GLADWIN",NA,7.7,1.781,"HOUSE",44.14166,-84.57148,6.4,"26-31",2.337,25.8
58687393,7,"June",1959,"GLADWIN",NA,NA,14.974,"FOUR",44.15499,-84.44565,12.191,"26-53",NA,NA
58687394,31,"August",1953,"GLADWIN",NA,NA,72.845,"PRATTS",44.02499,-84.54704,8.534,"26-20",NA,25.556
58687395,1,"July",1951,"GLADWIN",NA,NA,118.98,"ROSS",43.88381,-84.48406,5.791,"26-2",0.305,20.556
58687396,6,"August",1951,"GLADWIN",NA,NA,97.127,"WOODSMALL",43.96027,-84.33593,9.144,"26-12",0.914,24.444
58687397,12,"August",1962,"GLADWIN",NA,NA,1.619,"SLAUGHTER-HOUSE",43.96888,-84.49732,6.4,"26-5",NA,22.222
58687398,19,"August",1947,"GLADWIN",NA,NA,4.047,"STREAKED",44.12916,-84.55454,7.62,"26-35",NA,26.667
58687399,9,"July",1951,"GLADWIN",NA,NA,801.295,"WIXOM",43.817,-84.38478,12.191,"26-3",0.914,24.444
58687400,24,"August",1938,"GLADWIN",NA,NA,2.145,"TROUT",44.1361,-84.5651,4.572,"26-32",3.81,20
58687401,19,"June",1951,"GLADWIN",NA,NA,140.024,"WIGGINS",43.9961,-84.54371,7.62,"26-4",1.829,20
58687402,19,"August",1950,"GLADWIN",NA,NA,3.966,"STREAKED",44.12916,-84.55454,7.62,"26-35",3.657,21.111
58687403,12,"August",1962,"GLADWIN",NA,NA,2.023,"TWENTYLITTLE",43.94304,-84.57093,7.924,"26-8",NA,21.111
58687404,30,"July",1962,"GOGEBIC",NA,NA,25.091,"BARB",46.32693,-89.58954,5.486,"27-740",2.895,21.111
58687405,7,"August",1953,"GOGEBIC",NA,NA,7.163,"ALBINO",46.2611,-89.2626,4.877,"27-655",NA,19.2
58687406,19,"June",1961,"GOGEBIC",NA,2.2,31.971,"ALLEN",46.22498,-89.17232,12.496,"27-111",3.657,23.889
58687407,3,"September",1937,"GOGEBIC","camp bonifos c.c.c. camp, 7 cottages on lake",7,77.297,"BASSMARENISCOTWP",46.30498,-89.17427,3.962,"27-520",1.372,23.333
58687408,6,"July",1962,"GOGEBIC",NA,NA,77.297,"BASSMARENISCOTWP",46.30498,-89.17427,3.657,"27-520",NA,NA
58687409,7,"September",1937,"GOGEBIC","two lodges (caseda and stickley) private, 45 boats for rent.",0.4,133.549,"BEATONS",46.32804,-89.36621,28.955,"27-622",5.486,21.8
58687410,15,"August",1949,"GOGEBIC",NA,NA,80.939,"BIRCH",46.15582,-89.15538,3.657,"27-13",NA,25
58687411,11,"July",1963,"GOGEBIC",NA,NA,6.07,"BEATONSLITTLE",46.33748,-89.37371,5.486,"27-965",1.219,22.778
58687412,17,"July",1962,"GOGEBIC",NA,NA,4.047,"BLUEBELL",46.27498,-89.7185,7.62,"27-833",0.914,21.111
58687413,13,"July",1960,"GOGEBIC",NA,NA,8.094,"BLUEJAY",46.32179,-89.78103,13.715,"27-885",NA,23.333
58687414,25,"June",1962,"GOGEBIC",NA,NA,9.308,"BUCK",46.31998,-89.10927,6.096,"27-364",3.353,22.611
58687415,26,"June",1962,"GOGEBIC",NA,NA,11.331,"CASTLE",46.31526,-89.07371,15.849,"27-369",2.438,20.556
58687416,27,"September",1950,"GOGEBIC",NA,NA,210.441,"CHANEY",46.31665,-89.9126,6.096,"27-933",NA,14.444
58687417,27,"June",1962,"GOGEBIC",NA,NA,2.023,"CASTLELITTLE",46.31768,-89.07727,15.544,"27-368",3.962,21.667
58687418,22,"June",1955,"GOGEBIC",NA,0.5,23.068,"CLOVERLEAF",46.2552,-89.45584,6.705,"27-727",2.438,20
58687419,22,"June",1955,"GOGEBIC",NA,0.5,23.068,"CLOVERLEAF",46.2552,-89.45584,6.705,"27-727",2.438,20
58687420,13,"August",1953,"GOGEBIC",NA,NA,204.775,"CISCO",46.24165,-89.44593,6.096,"27-275",NA,21.9
58687421,13,"July",1962,"GOGEBIC",NA,NA,5.706,"CORNELIA",46.26804,-89.50288,12.191,"27-769",2.743,22.611
58687422,20,"September",1952,"GOGEBIC",NA,NA,26.305,"CRANE",46.32082,-89.30427,6.096,"27-620",2.286,16.111
58687423,18,"July",1938,"GOGEBIC",NA,NA,229.017,"CROOKED",46.23332,-89.29176,20.116,"27-180",2.133,23
58687424,16,"August",1961,"GOGEBIC",NA,NA,NA,"CYRUS",46.24721,-89.64315,9.448,"27-357",NA,NA
58687425,15,"August",1963,"GOGEBIC",NA,NA,33.59,"CUP",46.38054,-89.49177,1.219,"27-948",0.914,19.611
58687426,29,"August",1943,"GOGEBIC",NA,NA,2.428,"DOWNY",46.26248,-89.66399,7.62,"27-857",NA,20
58687427,28,"September",1978,"GOGEBIC",NA,NA,NA,"DAWN",46.25554,-89.60704,18.287,"27-784",3.048,16
58687428,4,"August",1961,"GOGEBIC",NA,NA,NA,"DAWN",46.25554,-89.60704,13.106,"27-784",NA,NA
58687429,24,"June",1960,"GOGEBIC",NA,NA,36.827,"DEVILSHEAD",46.21387,-89.24176,14.325,"27-104",4.267,22.778
58687430,27,"August",1964,"GOGEBIC",NA,NA,NA,"DREAM",46.20693,-89.3751,NA,"27-315",0.762,19.611
58687431,30,"August",1956,"GOGEBIC",NA,NA,246.864,"DUCK",46.20832,-89.21676,7.62,"27-108",NA,17.667
58687432,28,"August",1962,"GOGEBIC",NA,NA,16.997,"DUCKLITTLE",46.22615,-89.22754,19.811,"27-97",6.705,22.5
58687433,27,"September",1978,"GOGEBIC",NA,NA,10.522,"ELBOW",46.35137,-89.78343,6.096,"27-1012",NA,15
58687434,13,"August",1955,"GOGEBIC",NA,NA,8.984,"DUTCH",46.21387,-89.45982,18.287,"27-325",NA,24.7
58687435,14,"August",1955,"GOGEBIC",NA,NA,NA,"DUMBBELL",46.231,-89.46353,NA,"27-284",NA,25
58687436,21,"July",1960,"GOGEBIC",NA,NA,8.094,"ELBOW",46.35137,-89.78343,3.048,"27-1012",2.133,24.444
58687437,27,"June",1960,"GOGEBIC",NA,NA,20.235,"EEL",46.29582,-89.76121,5.486,"27-914",NA,24.444
58687438,19,"August",1963,"GOGEBIC",NA,NA,4.371,"FOGGY",46.25315,-89.48667,1.981,"27-725",1.219,19.889
58687439,28,"June",1961,"GOGEBIC",NA,NA,23.472,"FINGERBIG",46.11943,-89.00565,10.972,"27-7",4.267,21.667
58687440,14,"August",1955,"GOGEBIC",NA,NA,50.182,"EMELINE",46.23887,-89.47926,22.859,"27-289",NA,23.9
58687441,7,"August",1962,"GOGEBIC",NA,NA,4.047,"FOXPAW",46.30971,-89.81121,6.096,"27-892",2.591,22.778
58687442,2,"July",1962,"GOGEBIC",NA,NA,13.962,"ENGLESBY",46.27498,-88.99593,3.962,"27-443",1.829,21.222
58687443,16,"June",1938,"GOGEBIC",NA,7.8,5981.789,"GOGEBIC",NA,NA,11.277,NA,0.61,15
58687444,25,"June",1959,"GOGEBIC",NA,NA,16.188,"GRASS",46.17498,-89.1251,7.62,"27-142",NA,23.222
58687445,19,"June",1979,"GOGEBIC",NA,NA,10.117,"HARTLEY",46.32498,-89.39176,1.829,"27-686",NA,20
58687446,18,"August",1981,"GOGEBIC",NA,NA,16.188,"GRASS",46.17498,-89.1251,7.01,"27-142",6.1,21
58687447,7,"July",1960,"GOGEBIC",NA,2.1,17.402,"HENRY",46.32776,-89.79038,9.144,"27-888",1.829,24.444
58687448,24,"July",1948,"GOGEBIC",NA,NA,6.07,"HAY",46.21387,-89.33065,10.667,"27-223",2.286,20.556
58687449,29,"July",1960,"GOGEBIC",NA,NA,76.083,"HEART",46.35415,-89.74593,2.133,"27-981",NA,25
58687450,27,"September",1978,"GOGEBIC",NA,NA,14.367,"HOLLY",46.26387,-89.61121,3.962,"27-781",NA,17.222
58687451,17,"July",1962,"GOGEBIC",NA,NA,4.047,"HONEYSUCKLE",46.27221,-89.72232,17.373,"27-872",3.048,20.556
58687452,4,"September",1955,"GOGEBIC",NA,NA,12.546,"HOIST",46.18332,-89.15843,10.667,"27-148",NA,19.7
58687453,1,"August",1961,"GOGEBIC",NA,NA,14.367,"HOLLY",46.26387,-89.61121,3.657,"27-781",NA,NA
58687454,13,"August",1948,"GOGEBIC",NA,NA,10.117,"IMAGE",46.25971,-89.68899,6.096,"27-863",1.676,22.5
58687455,11,"July",1938,"GOGEBIC",NA,6.7,34.601,"IMP",46.21665,-89.0751,24.383,"27-30",5.181,23.333
58687456,17,"July",1963,"GOGEBIC",NA,NA,8.094,"ISHKOTE",46.12332,-88.99176,6.096,"27-6",3.962,21.667
58687457,23,"June",1964,"GOGEBIC",NA,NA,7.042,"KING",46.27498,-89.66676,NA,"27-844",NA,18.333
58687458,11,"September",1937,"GOGEBIC","one flatbottomed boat on lake. no oars.",0.3,9.308,"JENNINGS",46.24026,-89.20149,15.239,"27-81",6.4,20
58687459,16,"July",1948,"GOGEBIC",NA,NA,6.435,"KUNSCHKE",46.25276,-89.66815,6.4,"27-877",NA,22.222
58687460,26,"July",1961,"GOGEBIC",NA,NA,11.331,"KVIDERA",46.23136,-89.17006,6.096,"27-70",3.048,22.778
58687461,6,"August",1959,"GOGEBIC",NA,NA,1740.186,"LACVIEUXDESERT",46.13679,-89.08121,11.582,"27-3",1.067,21.111
58687462,12,"July",1971,"GOGEBIC",NA,NA,1740.186,"LACVIEUXDESERT",46.13679,-89.08121,11.582,"27-3",1.524,21.111
58687463,17,"July",1962,"GOGEBIC",NA,NA,5.544,"LANGFORDLITTLE",46.27498,-89.49454,5.181,"27-766",2.286,23
58687464,4,"October",1966,"GOGEBIC",NA,NA,NA,"LOON",46.19998,-89.29593,15.239,"27-218",NA,11.111
58687465,7,"August",1956,"GOGEBIC",NA,NA,194.658,"LANGFORD",46.27498,-89.47926,4.572,"27-696",2.743,20.556
58687466,1,"July",1961,"GOGEBIC",NA,NA,10.117,"LUMBERJACK",46.25109,-89.1449,12.191,"27-611",0.229,25
58687467,6,"July",1938,"GOGEBIC",NA,NA,128.612,"MARION",46.26387,-89.0876,12.191,"27-495",1.829,21.8
58687468,27,"June",1955,"GOGEBIC",NA,NA,25.739,"MINK",46.31387,-89.78343,1.829,"27-896",1.219,21.111
58687469,18,"August",1961,"GOGEBIC",NA,NA,NA,"MASTADON",46.2611,-89.65149,6.096,"27-852",1.829,NA
58687470,23,"June",1963,"GOGEBIC",NA,0,3.845,"MARELL",46.30971,-89.93482,13.715,"27-935",NA,25.556
58687471,8,"July",1964,"GOGEBIC",NA,NA,NA,"MEANDER",46.2895,-89.67857,NA,"27-827",0.914,17.722
58687472,29,"June",1955,"GOGEBIC",NA,NA,25.739,"MINK",46.31387,-89.78343,1.829,"27-896",1.219,21.111
58687473,10,"July",1963,"GOGEBIC",NA,NA,5.382,"MISTY",46.25274,-89.48224,18.287,"27-723",1.981,22.222
58687474,12,"July",1960,"GOGEBIC",NA,0.7,5.261,"MISHIKE",46.31248,-89.7501,9.144,"27-909",3.657,22.778
58687475,26,"July",1960,"GOGEBIC",NA,NA,23.472,"MOOSEHEAD",46.24165,-89.60843,11.887,"27-346",2.438,24.444
58687476,6,"August",1945,"GOGEBIC",NA,0.5,37.637,"MOON",46.1736,-89.20843,12.191,"27-153",NA,21.111
58687477,25,"September",1978,"GOGEBIC",NA,NA,21.854,"MOOSEHEAD",46.24165,-89.60843,11.887,"27-346",NA,NA
58687478,22,"July",1960,"GOGEBIC",NA,NA,27.115,"MORAINE",46.27776,-89.78343,6.705,"27-930",3.048,23.333
58687479,26,"August",1964,"GOGEBIC",NA,NA,NA,"MULE",46.21804,-89.38482,NA,"27-311",2.133,20.889
58687481,23,"September",1960,"GOGEBIC",NA,NA,5.382,"MOSQUITOBIG",46.24617,-89.47046,20.116,"27-287",1.524,NA
58687482,21,"June",1961,"GOGEBIC",NA,3.8,48.563,"NORWOODBOOT",46.11248,-89.01593,18.287,"27-10",NA,21.111
58687483,12,"May",1959,"GOGEBIC",NA,NA,3.157,"ORCHARD",46.25832,-89.57093,13.411,"27-794",NA,NA
58687484,8,"July",1960,"GOGEBIC",NA,NA,3.238,"ORCHID",46.3236,-89.78343,3.048,"27-887",NA,NA
58687485,28,"August",1964,"GOGEBIC",NA,NA,NA,"OSPREY",46.28665,-89.8038,NA,"27-926",0.305,18.667
58687486,28,"September",1978,"GOGEBIC",NA,NA,20.113,"ORMES",46.27082,-89.65313,19.811,"27-854",NA,NA
58687487,13,"August",1948,"GOGEBIC",NA,NA,20.113,"ORMES",46.27082,-89.65313,NA,"27-854",4.724,19.5
58687488,16,"July",1948,"GOGEBIC",NA,NA,18.211,"OXBOWLITTLE",46.25721,-89.66649,24.383,"27-858",NA,23.333
58687489,28,"September",1978,"GOGEBIC",NA,NA,38.446,"OXBOWLITTLE",46.25721,-89.66649,25.907,"27-858",NA,NA
58687490,15,"August",1961,"GOGEBIC",NA,NA,NA,"PIGEON",46.25693,-89.64315,6.4,"27-879",NA,NA
58687491,28,"September",1978,"GOGEBIC",NA,NA,127.074,"POMEROY",46.27915,-89.5751,4.572,"27-761",0.762,NA
58687492,22,"August",1956,"GOGEBIC",NA,NA,127.074,"POMEROY",46.27915,-89.5751,4.572,"27-761",1.219,17.778
58687493,30,"June",1961,"GOGEBIC",NA,2.3,20.235,"POWWOW",46.24304,-89.11954,13.715,"27-27",3.353,23.889
58687494,12,"July",1962,"GOGEBIC",NA,NA,20.113,"ORMES",46.27082,-89.65313,19.811,"27-854",NA,NA
58687495,6,"July",1960,"GOGEBIC",NA,NA,10.522,"PLYMOUTH",46.30693,-89.75704,4.572,"27-913",2.133,22.222
58687496,8,"August",1961,"GOGEBIC",NA,NA,NA,"POMEROYLITTLE",46.2686,-89.5701,5.486,"27-777",NA,NA
58687497,7,"July",1961,"GOGEBIC",NA,NA,NA,"PRESQUEISLEFLOWAGE",46.35829,-89.6974,NA,"27-820",NA,NA
58687498,18,"July",1962,"GOGEBIC",NA,NA,NA,"PRESQUEISLELITTLE",46.23889,-89.60381,NA,"27-345",NA,NA
58687500,26,"September",1978,"GOGEBIC",NA,NA,NA,"PRESQUEISLELITTLE",46.23889,-89.60381,NA,"27-345",NA,16
58687501,9,"August",1962,"GOGEBIC",NA,NA,NA,"RIDGE",46.29304,-89.77788,5.486,"27-916",1.524,22.778
58687502,26,"September",1978,"GOGEBIC",NA,NA,NA,"REDBOAT",46.34443,-89.77371,NA,"27-1016",3.505,NA
58687503,20,"July",1960,"GOGEBIC",NA,2.4,18.211,"REDBOAT",46.34443,-89.77371,10.667,"27-1016",3.048,22.778
58687504,19,"June",1964,"GOGEBIC",NA,NA,2.023,"QUEEN",46.27475,-89.66197,17.068,"27-855",0.914,20.278
58687505,11,"August",1961,"GOGEBIC",NA,NA,NA,"RANGE",46.25554,-89.61399,8.229,"27-785",NA,NA
58687506,10,"August",1962,"GOGEBIC",NA,NA,NA,"STAUGUSTINE",46.30466,-89.61106,3.962,"27-748",1.524,20.611
58687507,4,"June",1952,"GOGEBIC",NA,NA,9.632,"SCOUT",46.18054,-89.12649,NA,"27-145",NA,NA
58687508,14,"July",1938,"GOGEBIC",NA,NA,177.742,"SUCKER",46.3037,-89.25364,4.572,"27-517",0.457,22.222
58687509,14,"July",1961,"GOGEBIC",NA,NA,8.499,"SUMMIT",46.25637,-89.62621,8.534,"27-882",1.524,23.333
58687510,19,"August",1963,"GOGEBIC",NA,0.32,12.95,"SPIDER",46.25415,-89.46676,NA,"27-726",NA,18.111
58687512,22,"August",1960,"GOGEBIC",NA,0.8,65.965,"TAYLOR",46.24276,-89.04093,12.191,"27-16",1.829,23.333
58687513,28,"August",1951,"GOGEBIC",NA,NA,93.08,"SUNDAY",46.48115,-89.96055,2.133,"27-1063",NA,20.1
58687514,12,"July",1960,"GOGEBIC",NA,NA,3.723,"TAPS",46.30832,-89.7501,3.353,"27-911",0.914,23.889
58687515,10,"September",1958,"GOGEBIC",NA,NA,11.635,"SUNS",46.24304,-89.1001,13.715,"27-23",1.524,NA
58687516,14,"July",1960,"GOGEBIC",NA,NA,16.188,"THRUSH",46.32082,-89.79315,6.096,"27-889",2.743,22.778
58687517,26,"July",1938,"GOGEBIC",NA,3.4,436.544,"THOUSANDISLAND",46.22915,-89.4001,24.688,"27-265",1.219,21.667
58687518,4,"August",1936,"GRANDTRAVERSE","boys and girls camps. numerous cottages. camping",0,159.854,"ARBUTUS",44.66443,-85.51815,13.411,"28-84",3.8,25
58687519,3,"June",1954,"GRANDTRAVERSE",NA,NA,36.018,"BASS",44.69138,-85.70676,5.791,"28-106",NA,18.333
58687520,17,"June",1968,"GRANDTRAVERSE",NA,NA,NA,"ARBUTUS",44.66443,-85.51815,NA,"28-84",NA,20.556
58687521,12,"July",1963,"GOGEBIC",NA,NA,11.736,"WILSON",46.20693,-89.15843,16.458,"27-119",1.372,75
58687522,21,"June",1968,"GRANDTRAVERSE",NA,NA,159.854,"ARBUTUS",44.66443,-85.51815,NA,"28-84",NA,NA
58687523,18,"June",1995,"GRANDTRAVERSE",NA,NA,138.81,"BASS",44.69138,-85.70676,8.839,"28-106",1.981,26.667
58687524,2,"June",1989,"GRANDTRAVERSE",NA,NA,137.191,"BOARDMAN",44.75667,-85.61472,18.5,"28-187",2.895,13
58687525,13,"July",1938,"GRANDTRAVERSE",NA,4.6,137.11,"BOARDMAN",44.75667,-85.61472,19.506,"28-187",3.962,19.6
58687526,16,"June",1986,"GRANDTRAVERSE",NA,NA,NA,"BOARDMAN",44.68547,-85.62687,NA,"28-101",NA,NA
58687527,4,"August",1966,"GRANDTRAVERSE",NA,NA,32.376,"BOARDMAN",44.75667,-85.61472,12.191,"28-187",NA,NA
58687528,5,"August",1966,"GRANDTRAVERSE",NA,NA,32.376,"BOARDMAN",44.75667,-85.61472,12.191,"28-187",NA,NA
58687529,3,"August",1966,"GRANDTRAVERSE",NA,NA,32.376,"BOARDMAN",44.75667,-85.61472,12.191,"28-187",NA,NA
58687530,23,"August",1950,"GRANDTRAVERSE",NA,NA,12.95,"BRIDGES",44.63915,-85.78537,11.887,"28-132",3.353,25.5
58687531,27,"July",1966,"GRANDTRAVERSE",NA,NA,80.939,"BROWNBRIDGE",44.64332,-85.50899,12.191,"28-95",NA,NA
58687532,11,"May",1967,"GRANDTRAVERSE",NA,NA,78.915,"CEDARHEDGE",44.66999,-85.78454,21.03,"28-110",NA,12.778
58687533,23,"June",1986,"GRANDTRAVERSE",NA,NA,72.845,"BROWNBRIDGE",44.64332,-85.50899,NA,"28-95",NA,NA
58687534,26,"July",1966,"GRANDTRAVERSE",NA,NA,80.939,"BROWNBRIDGE",44.64332,-85.50899,12.191,"28-95",NA,NA
58687535,6,"February",1959,"GRANDTRAVERSE",NA,NA,1.214,"CHRISTMASTREE",44.67675,-85.80555,7.315,"28-114",NA,NA
58687536,28,"June",1968,"GRANDTRAVERSE",NA,NA,14.974,"DOLLAR",44.69054,-85.41787,NA,"28-166",NA,14.444
58687537,20,"July",1966,"GRANDTRAVERSE",NA,NA,10.117,"DOLLAR",44.69054,-85.41787,NA,"28-166",NA,NA
58687538,1,"May",1953,"GRANDTRAVERSE",NA,NA,24.282,"CHANDLER",44.68749,-85.52621,9.144,"28-86",NA,NA
58687539,21,"August",1957,"GRANDTRAVERSE",NA,NA,2.428,"COON",44.7011,-85.53815,9.144,"28-172",NA,22.222
58687540,12,"July",1952,"GRANDTRAVERSE",NA,NA,1.214,"DOLLAR",44.69054,-85.41787,3.048,"28-166",NA,NA
58687541,24,"July",1950,"GRANDTRAVERSE",NA,NA,781.06,"DUCK",44.63138,-85.7451,29.869,"28-124",3.81,23.333
58687542,16,"October",1956,"GRANDTRAVERSE",NA,NA,14.974,"DOLLAR",44.69054,-85.41787,8.534,"28-166",NA,NA
58687543,23,"June",1936,"GRANDTRAVERSE",NA,NA,298.665,"FIFE",44.56029,-85.34403,18.287,"28-10",3.962,19.7
58687544,3,"May",1982,"GRANDTRAVERSE",NA,NA,249.696,"FIFE",44.56029,-85.34403,18.287,"28-10",NA,NA
58687545,19,"October",1966,"GRANDTRAVERSE",NA,NA,8.094,"FISH",44.54804,-85.6851,1.219,"28-50",NA,NA
58687547,6,"August",1947,"GRANDTRAVERSE",NA,NA,2428.167,"GREEN",44.61138,-85.78426,18.287,"28-56",3.657,24.1
58687548,30,"August",1960,"GRANDTRAVERSE",NA,NA,809.389,"GREEN",44.61138,-85.78426,31.088,"28-56",3.048,20
58687549,NA,"July",1989,"GRANDTRAVERSE",NA,NA,804.128,"GREEN",44.61138,-85.78426,31.088,"28-56",NA,NA
58687550,29,"July",1966,"GRANDTRAVERSE",NA,NA,48.563,"HYDRO",NA,NA,0.61,NA,NA,NA
58687551,NA,"August",1957,"GRANDTRAVERSE",NA,NA,7.446,"HIGH",44.68832,-85.51565,7.62,"28-85",NA,NA
58687552,2,"June",1959,"GRANDTRAVERSE",NA,NA,14.974,"INDIAN",44.6911,-85.48287,2.438,"28-182",NA,NA
58687553,2,"June",1982,"GRANDTRAVERSE",NA,NA,1157.426,"LONG",44.71165,-85.74843,26.821,"28-214",NA,20
58687554,14,"October",1957,"GRANDTRAVERSE",NA,NA,NA,"MAYFIELD",44.62663,-85.53279,NA,"28-97",NA,NA
58687555,3,"August",1950,"GRANDTRAVERSE",NA,NA,1157.426,"LONG",44.71165,-85.74843,26.821,"28-214",4.572,23.333
58687556,28,"July",1966,"GRANDTRAVERSE",NA,NA,48.563,"HYDRO",NA,NA,0.61,NA,NA,NA
58687557,4,"June",1982,"GRANDTRAVERSE",NA,NA,NA,"MICKEY",44.72888,-85.76454,3.657,"28-241",NA,21.111
58687558,2,"July",1951,"GRANDTRAVERSE",NA,NA,97.936,"RENNIE",44.66804,-85.46787,8.229,"28-74",3.81,19.444
58687559,14,"October",1955,"GRANDTRAVERSE",NA,NA,40.469,"RENNIE",44.66804,-85.46787,0.914,"28-74",NA,NA
58687560,4,"January",1966,"GRANDTRAVERSE",NA,NA,0.809,"NONAME",44.54153,-85.73625,4.572,"28-242",NA,NA
58687561,28,"June",1966,"GRANDTRAVERSE",NA,NA,48.563,"RENNIE",44.66804,-85.46787,12.191,"28-74",NA,NA
58687564,28,"June",1968,"GRANDTRAVERSE",NA,NA,6.313,"ROOTS",44.72914,-85.35346,NA,"28-142",NA,NA
58687565,9,"June",1986,"GRANDTRAVERSE",NA,NA,NA,"SABIN",NA,NA,NA,NA,NA,NA
58687566,2,"August",1966,"GRANDTRAVERSE",NA,NA,8.094,"SABIN",NA,NA,9.144,NA,NA,NA
58687568,22,"August",1952,"GRANDTRAVERSE",NA,NA,5.747,"SANDS",44.71773,-85.35712,14.02,"28-148",NA,22
58687569,22,"May",1995,"GRANDTRAVERSE",NA,NA,5.747,"SANDS",44.71469,-85.34806,14.02,"28-152",3.048,25.556
58687570,22,"June",1982,"GRANDTRAVERSE",NA,7,242.817,"SILVER",44.69277,-85.68621,29.259,"28-102",NA,20
58687571,20,"July",1950,"GRANDTRAVERSE",NA,NA,242.817,"SILVER",44.69277,-85.68621,29.259,"28-102",5.029,21.111
58687572,19,"June",1968,"GRANDTRAVERSE",NA,NA,242.817,"SILVER",44.69277,-85.68621,29.259,"28-102",NA,NA
58687573,12,"May",1982,"GRANDTRAVERSE",NA,NA,182.113,"SPIDER",44.67721,-85.48926,13.715,"28-81",NA,17.778
58687574,NA,"September",1960,"GRANDTRAVERSE",NA,NA,3.521,"TWIN",44.70352,-85.4078,5.791,"28-156",NA,NA
58687575,17,"June",1968,"GRANDTRAVERSE",NA,NA,NA,"TWIN",44.70352,-85.4078,NA,"28-156",NA,17.222
58687576,17,"August",1948,"GRANDTRAVERSE",NA,1.8,6.07,"TWINNORTH",44.74777,-85.71343,17.678,"28-205",8.534,21.667
58687577,8,"June",1954,"GRANDTRAVERSE",NA,NA,NA,"VANDERVORT",44.69332,-85.49065,NA,"28-183",NA,NA
58687578,24,"June",1968,"GRANDTRAVERSE",NA,NA,NA,"TWIN",44.70221,-85.41121,NA,"28-157",NA,NA
58687579,5,"July",1931,"HILLSDALE","boat livery. several cottages.",NA,29.947,"BANKERS",41.88804,-84.69092,13.715,"30-255",NA,25
58687580,29,"June",1931,"HILLSDALE","extensive. many cottages, a country club, a hotel and a dance hall along lake.",NA,127.883,"BAWBEESE",41.90416,-84.61325,21.64,"30-184-GRP",NA,24.444
58687581,10,"July",1931,"HILLSDALE","little. one or two cottages.",NA,42.088,"BEAR",41.8686,-84.68092,16.154,"30-259",NA,23.889
58687582,17,"July",1931,"HILLSDALE","one cottage",NA,8.903,"BERRY",41.8511,-84.78842,8.534,"30-295",NA,24.444
58687583,3,"July",1931,"HILLSDALE","none.",NA,25.9,"BOOT",41.88304,-84.60342,12.191,"30-251",NA,25.556
58687584,11,"July",1931,"HILLSDALE","little. several cottages.",NA,13.557,"CARPENTER",41.88888,-84.7962,12.191,"30-277",NA,23.889
58687585,24,"June",1937,"HILLSDALE","none",0.3,14.65,"COBB",42.04027,-84.63509,9.144,"30-72",NA,23
58687586,29,"June",1937,"HILLSDALE","no",1.5,15.217,"HASTINGSLITTLE",NA,NA,12.191,"30-78",4.267,25.2
58687587,2,"July",1931,"HILLSDALE","none",NA,17.807,"FOURTH",41.88582,-84.59565,15.544,"30-222",NA,26.667
58687588,15,"July",1931,"HILLSDALE","fairly extensive. dance hall and about a dozen cottages.",NA,59.085,"HEMLOCK",41.89554,-84.79204,19.811,"30-194",NA,25.556
58687589,10,"July",1931,"HILLSDALE","a dozen or more cottages along southern 1/3 of lake. very little development along upper 2/3",NA,86.2,"LONG",41.87332,-84.79676,13.715,"30-278",NA,24.444
58687590,NA,"August",1955,"HILLSDALE",NA,NA,56.657,"HEMLOCK",41.89554,-84.79204,19.811,"30-194",3.048,24.444
58687591,2,"July",1937,"HILLSDALE",NA,0,10.846,"MOSHERVILLEBIG",NA,NA,12.191,"30-67",NA,22
58687592,19,"June",1931,"HILLSDALE","three cottages on northeast side",NA,15.176,"PERCH",42.0586,-84.41259,3.048,"30-2",NA,25.556
58687593,30,"June",1931,"HILLSDALE","one cottage",NA,14.569,"SECOND",NA,NA,18.897,NA,NA,26.667
58687594,1,"July",1931,"HILLSDALE","one or two cottages",NA,14.164,"THIRD",NA,NA,4.115,NA,NA,28.333
58687595,22,"June",1931,"HILLSDALE","none.",NA,12.829,"MOON",42.03971,-84.41176,10.972,"30-22",NA,23.889
58687596,6,"July",1931,"HILLSDALE","seven cottages on east side",NA,37.232,"WILSON",41.87804,-84.68426,18.287,"30-256",NA,26.667
58687597,7,"August",1954,"HOUGHTON",NA,2.6,4.047,"BOHMIER",46.83443,-88.87982,15.239,"31-781",NA,23.2
58687598,20,"August",1937,"HOUGHTON",NA,5.8,48.563,"BOB",46.66582,-88.90871,4.572,"31-585",1.524,23.8
58687599,20,"August",1937,"HOUGHTON",NA,5.8,48.563,"BOB",46.66582,-88.90871,4.572,"31-585",1.524,23.8
58687600,6,"August",1968,"HOUGHTON",NA,NA,2.833,"BOSTON",47.17054,-88.52704,2.133,"31-1183",1.524,21.667
58687601,9,"August",1950,"HOUGHTON",NA,NA,12.141,"CALUMETHECLADAM",47.25499,-88.44593,1.829,"31-1243",NA,21.111
58687602,4,"August",1954,"HOUGHTON",NA,NA,6.677,"CRYSTAL",46.50248,-88.76177,6.705,"31-41",NA,24.8
58687603,6,"August",1963,"HOUGHTON",NA,NA,7.285,"ELEVENMILE",47.01498,-88.70788,5.486,"31-1019",NA,23.889
58687604,23,"July",1956,"HOUGHTON",NA,4.9,21.651,"EMILY",46.85943,-88.85399,27.431,"31-973",5.791,21.111
58687605,31,"August",1950,"HOUGHTON",NA,0,18.211,"ECHO",46.61248,-88.8476,12.496,"31-540",NA,17.778
58687606,9,"August",1954,"HOUGHTON",NA,NA,6.677,"CRYSTAL",46.50248,-88.76177,6.4,"31-41",2.895,21.111
58687607,2,"September",1937,"HOUGHTON","no.",1.4,103.197,"GERALD",46.89915,-88.83121,12.496,"31-909",2.895,22.1
58687608,24,"August",1970,"HOUGHTON",NA,NA,103.197,"GERALD",46.89915,-88.83121,12.191,"31-909",2.438,23.333
58687609,18,"August",1959,"HOUGHTON",NA,NA,16.592,"HAUGER",46.46471,-88.71815,6.4,"31-7",1.219,22.778
58687610,26,"August",1947,"HOUGHTON",NA,NA,3.238,"KRATT",46.84344,-88.86268,10.058,"31-763",3.048,21
58687611,18,"July",1963,"HOUGHTON",NA,NA,5.18,"KUNZE",46.43899,-88.72538,17.982,"31-34",1.219,22.778
58687612,26,"August",1947,"HOUGHTON",NA,NA,8.094,"KRATT",46.84344,-88.86268,8.839,"31-763",NA,23.889
58687613,7,"July",1958,"HOUGHTON",NA,NA,10.117,"ONTHREE",46.42169,-88.7944,11.582,"31-84",NA,25.556
58687614,22,"August",1962,"HOUGHTON",NA,NA,NA,"MAGGIE",46.42721,-88.88843,3.048,"31-140",1.067,22.722
58687615,18,"August",1937,"HOUGHTON",NA,3.6,19.514,"MARKEY",46.57276,-88.78232,21.03,"31-226",5.181,24.5
58687616,28,"June",1971,"HOUGHTON",NA,NA,72.44,"MUD",47.12943,-88.31788,3.657,"31-1181",1.219,23.333
58687617,22,"August",1954,"HOUGHTON",NA,NA,NA,"MUD",47.12943,-88.31788,NA,"31-1181",NA,NA
58687618,24,"August",1948,"HOUGHTON",NA,NA,8.094,"ONGIE",46.96748,-88.78538,7.924,"31-1061",NA,26
58687619,2,"October",1941,"HOUGHTON",NA,NA,7.568,"ONGIE",46.96748,-88.78538,8.229,"31-1061",3.048,12.222
58687620,22,"June",1971,"HOUGHTON",NA,NA,273.169,"RICELITTLE",47.15387,-88.2701,2.743,"31-1172",1.829,22.222
58687621,11,"July",1955,"HOUGHTON",NA,NA,360.178,"OTTER",46.91332,-88.57371,8.839,"31-825",NA,22.778
58687622,25,"August",1948,"HOUGHTON",NA,NA,4.856,"PERRAULT",47.03026,-88.73371,NA,"31-1145",NA,24.5
58687623,3,"September",1937,"HOUGHTON","houghton co. park",NA,118.171,"ROLAND",46.88971,-88.85121,12.496,"31-915",2.591,21.2
58687624,17,"August",1970,"HOUGHTON",NA,NA,118.171,"ROLAND",46.88971,-88.85121,12.191,"31-915",2.591,23.889
58687625,12,"July",1956,"HOUGHTON",NA,NA,40.874,"SANDY",46.85137,-88.87093,6.4,"31-767",1.524,18.333
58687626,30,"July",1949,"HOUGHTON",NA,NA,12.141,"STONINGTON",46.96332,-88.78621,5.486,"31-1070",0.914,21.111
58687627,5,"August",1963,"HOUGHTON",NA,NA,5.666,"THIRTEENMILE",46.9936,-88.74704,9.144,"31-1044",NA,24.444
58687628,18,"August",1947,"HOUGHTON",NA,NA,36.423,"THIRTEEN",46.46748,-88.75371,3.048,"31-51",NA,23.333
58687629,18,"June",1967,"HOUGHTON",NA,NA,3.278,"TOIVOLA",46.98365,-88.799,5.791,"31-1055",2.438,20.556
58687630,26,"June",1967,"HOUGHTON",NA,NA,5.463,"TOIVOLA",46.98736,-88.80057,12.191,"31-1056",4.877,19.778
58687631,23,"August",1960,"HOUGHTON",NA,NA,2.428,"TWENTY-EIGHT",NA,NA,9.144,NA,1.219,22.778
58687632,28,"June",1967,"HOUGHTON",NA,NA,4.452,"TOIVOLA",NA,NA,2.438,"conflict",1.524,20
58687633,23,"August",1944,"HOUGHTON",NA,NA,2.833,"WEBBER",47.00776,-88.80316,3.962,"31-1026",3.048,23.056
58687634,24,"June",1991,"INGHAM",NA,NA,12.141,"JONES",42.76804,-84.56259,10.058,"33-137",NA,26
58687635,12,"August",1938,"INGHAM",NA,4.9,183.124,"LANSING",42.75804,-84.39898,11.277,"33-128",1.88,27.222
58687636,18,"May",1946,"INGHAM",NA,NA,1.214,"SCOTTTURNERS",NA,NA,2.743,NA,NA,12.778
58687637,27,"July",1955,"IONIA",NA,NA,144.071,"LONG",43.11332,-85.12259,17.373,"34-73",1.219,28.333
58687638,23,"July",1941,"IONIA",NA,0,128.45,"MORRISON",42.86082,-85.21176,10.972,"34-21",1.676,26.1
58687639,17,"June",1949,"IOSCO",NA,NA,20.032,"BASS",44.33749,-83.65343,6.705,"35-2",4.572,23.889
58687640,27,"June",1949,"IOSCO",NA,NA,16.592,"FLOYD",44.33055,-83.66676,5.181,"35-5",3.048,29.2
58687641,22,"July",1949,"IOSCO",NA,NA,13.76,"BASSBIG",44.39638,-83.76204,9.144,"35-100",5.486,26
58687642,19,"July",1949,"IOSCO",NA,NA,11.331,"HALE",44.37999,-83.82954,6.096,"35-103",2.133,26.5
58687643,23,"June",1949,"IOSCO",NA,NA,88.223,"INDIAN",44.34721,-83.64954,4.572,"35-109",4.572,24.4
58687644,27,"June",1949,"IOSCO",NA,NA,26.507,"ISLAND",44.33916,-83.64287,5.181,"35-1",3.048,26.5
58687645,20,"June",1949,"IOSCO",NA,NA,23.27,"ISLANDLITTLE",44.33693,-83.67065,2.743,"35-7",2.133,26.667
58687646,7,"July",1949,"IOSCO",NA,NA,45.326,"JOSE",44.48221,-83.8276,7.62,"35-178",3.353,24.9
58687647,2,"August",1949,"IOSCO",NA,NA,188.183,"LONG",44.41499,-83.85399,18.897,"35-96",3.353,26.5
58687648,9,"May",1927,"IOSCO",NA,NA,NA,"LOUD",44.46332,-83.72232,NA,"35-199",NA,NA
58687649,12,"August",1949,"IOSCO",NA,NA,71.226,"LONDOSOUTH",44.3486,-83.86954,4.267,"35-104",1.981,25.556
58687650,25,"July",1949,"IOSCO",NA,1.1,168.758,"LOON",44.40971,-83.82371,39.012,"35-95",4.572,27.6
58687651,11,"August",1949,"IOSCO",NA,NA,76.892,"LONDOWEST",44.35416,-83.87926,4.877,"35-105",3.657,26.9
58687652,22,"June",1949,"IOSCO",NA,NA,37.03,"ROUND",44.33943,-83.6601,4.572,"35-4",2.286,24.3
58687653,28,"June",1949,"IOSCO",NA,NA,96.722,"SAND",44.32555,-83.68093,7.62,"35-9",4.572,28.1
58687654,15,"August",1942,"IOSCO",NA,0.2,3.642,"SECOR",44.4386,-83.87926,12.801,"35-190",2.743,23.333
58687655,29,"August",1949,"IRON",NA,NA,30.352,"BASS",46.04332,-88.77176,2.286,"36-194",1.219,19.444
58687656,26,"August",1937,"IOSCO",NA,7.7,534.197,"VANETTEN",44.47221,-83.35982,10.058,"35-219",1.829,22
58687657,14,"August",1953,"IRON",NA,NA,16.188,"BENNAN",46.07526,-88.74454,5.486,"36-188",NA,23
58687658,16,"August",1938,"IRON",NA,NA,28.329,"BELA",46.37637,-88.93343,2.438,"36-1966",1.829,23.889
58687659,25,"July",1959,"IRON",NA,NA,10.514,"BUDDLE",46.35415,-88.8126,13.715,"36-1768",NA,22.722
58687660,5,"July",1960,"IRON",NA,NA,65.561,"BUCK",46.03165,-88.4126,11.887,"36-150",NA,24.722
58687661,29,"August",1949,"IRON",NA,2,40.469,"CAMP",46.04332,-88.72315,12.801,"36-174",3.657,21.111
58687662,28,"July",1949,"IRON",NA,NA,50.587,"CAMP",46.04332,-88.72315,12.191,"36-174",3.657,25
58687663,2,"August",1954,"IRON",NA,NA,101.376,"BRULE",46.05776,-88.83843,6.096,"36-192",1.524,20.556
58687664,23,"August",1948,"IRON",NA,NA,16.188,"CHIEFEDWARDS",46.32637,-88.93621,10.363,"36-1159",3.048,21
58687665,14,"August",1962,"IRON",NA,NA,22.663,"CURRY",46.34443,-88.96343,7.62,"36-2097",NA,19.778
58687666,8,"September",1943,"IRON",NA,NA,4.614,"CLEAR",46.36915,-88.95121,16.763,"36-2018",4.877,17.222
58687667,14,"August",1962,"IRON",NA,NA,22.663,"CURRY",46.34443,-88.96343,7.62,"36-2097",NA,19.778
58687668,26,"June",1964,"IRON",NA,NA,NA,"CHAMBERLAIN",46.36443,-88.80538,NA,"36-1744",2.133,18.222
58687669,10,"September",1946,"IRON",NA,NA,3.238,"DAWSON",46.07582,-88.18343,NA,"36-256",3.048,16
58687670,27,"July",1948,"IRON",NA,NA,4.856,"DAWSON",46.07582,-88.18343,NA,"36-256",NA,21.111
58687671,25,"August",1949,"IRON",NA,NA,40.469,"DEER",46.3261,-88.32649,NA,"36-849",1.219,19.444
58687672,18,"August",1948,"IRON",NA,NA,50.587,"ELLEN",46.1736,-88.15065,15.239,"36-553",NA,21
58687673,25,"August",1949,"IRON",NA,NA,40.469,"DEER",46.3261,-88.32649,NA,"36-849",1.219,19.444
58687674,31,"August",195,"IRON",NA,NA,NA,"EMILY",46.11249,-88.50149,NA,"36-363",NA,NA
58687675,24,"August",1950,"IRON",NA,1.2,NA,"ELLEN",46.1736,-88.15065,19.811,"36-553",6.096,18.5
58687676,26,"August",1953,"IRON",NA,NA,70.417,"FENCE",46.26871,-88.1188,8.534,"36-826",2.743,25
58687677,2,"September",1953,"IRON",NA,NA,14.164,"ERICKSON",46.06221,-88.15676,8.534,"36-27",0.457,23.333
58687678,19,"August",1948,"IRON",NA,NA,51.801,"FIRE",46.19276,-88.46927,12.191,"36-686",NA,22.5
58687679,19,"August",1948,"IRON",NA,NA,16.188,"ERICKSON",46.06221,-88.15676,7.924,"36-27",NA,19.5
58687680,25,"August",1937,"IRON",NA,NA,145.69,"FIVE",46.14998,-88.82926,15.239,"36-407",4.572,22.222
58687681,6,"July",1954,"IRON",NA,NA,31.971,"GIBSON",46.19971,-88.44315,7.01,"36-690",NA,19.444
58687682,19,"August",1957,"IRON",NA,NA,0.809,"GABBIT",46.39665,-88.82343,NA,"36-1635",NA,19.722
58687683,25,"August",1937,"IRON",NA,NA,115.338,"GOLDEN",46.17554,-88.88676,30.479,"36-777",9.144,23.889
58687684,2,"August",1938,"IRON",NA,0,236.463,"HAGERMAN",46.05971,-88.77982,16.458,"36-190",3.048,23.889
58687685,14,"August",1961,"IRON",NA,NA,11.736,"GLIDDEN",46.07165,-88.23982,9.144,"36-35",NA,23.611
58687686,17,"August",1944,"IRON",NA,NA,25.9,"HANNAHWEBB",46.3536,-88.72093,10.667,"36-1536",2.438,22.778
58687687,15,"August",1960,"IRON",NA,NA,25.9,"HANNAHWEBB",46.3536,-88.72093,10.667,"36-1536",2.438,21.111
58687688,25,"June",1964,"IRON",NA,NA,NA,"HOLMES",NA,NA,1.524,"conflict",NA,17.389
58687689,14,"August",1958,"IRON",NA,NA,11.331,"HOLMES",46.10499,-88.12538,3.657,"36-231",NA,23.222
58687690,31,"August",1950,"IRON",NA,NA,NA,"HOLLISTER",46.11721,-88.27426,10.667,"36-272",1.829,19
58687691,23,"July",1951,"IRON",NA,NA,32.376,"HOLMESUPPER",46.16443,-88.3276,10.667,"36-651",NA,23.2
58687692,30,"August",1937,"IRON","one private cottage on lake. 1/4 mi. to silk's serv. sta. candy, gas, oil, etc sold",4.9,14.569,"HARDING",46.36165,-88.89038,4.572,"36-2047",2.743,22.9
58687693,25,"July",1960,"IRON",NA,NA,21.449,"NORWAY",46.41471,-88.68593,6.096,"36-1488",NA,21.611
58687694,27,"August",1958,"IRON",NA,NA,402.266,"PERCH",46.36221,-88.66177,4.267,"36-1529",NA,17.778
58687695,1,"July",1955,"IRON",NA,0.5,34.399,"ICE",46.1011,-88.61426,10.667,"36-371",4.877,21.667
58687696,26,"August",1958,"IRON",NA,NA,125.455,"STANLEY",46.05887,-88.70676,11.887,"36-173",NA,19.611
58687697,1,"September",1937,"IRON","no cottages. 3 boats for rent. silk's service sta. 1/4 mi. candy, gas, oil, etc.",8,92.675,"PAINT",46.35221,-88.88927,4.572,"36-2067",2.286,23.333
58687698,20,"August",1949,"IRON",NA,NA,191.42,"SUNSET",46.13221,-88.59038,16.458,"36-355",3.353,21.111
58687699,5,"June",1962,"IRON",NA,NA,66.775,"SWAN",46.16332,-88.39482,6.096,"36-307",NA,10.556
58687700,22,"August",1960,"IRON",NA,NA,46.54,"TEPEE",46.38528,-88.87804,12.191,"36-1936",NA,21.278
58687701,22,"August",1960,"IRON",NA,NA,46.54,"TEPEE",46.38528,-88.87804,12.191,"36-1936",NA,21.278
58687702,15,"August",1962,"IRON",NA,NA,23.877,"TIMBER",46.14248,-88.8251,9.144,"36-408",NA,18.889
58687703,7,"June",1960,"IRON",NA,NA,39.66,"WILDWOOD",46.0986,-88.5626,5.181,"36-373",NA,21.722
58687704,25,"August",1938,"IRON",NA,NA,103.318,"WINSLOW",46.34582,-88.76454,7.62,"36-1760",1.219,19.444
58687705,1,"August",1941,"ISABELLA",NA,0,119.061,"COLDWATER",43.6611,-84.95593,19.811,"37-109",1.524,25
58687706,26,"May",1959,"ISABELLA",NA,NA,30.352,"HALLS",43.58082,-85.06648,10.667,"37-98",NA,NA
58687707,15,"September",1958,"ISABELLA",NA,NA,NA,"BLANCHARDMILL",43.52332,-85.07509,NA,"37-67",NA,NA
58687708,28,"February",1961,"ISABELLA",NA,NA,6.07,"ELDREDBIG",43.59804,-85.07065,6.096,"37-95",NA,NA
58687710,27,"September",1958,"ISABELLA",NA,NA,1.214,"MARSHALL",NA,NA,5.334,"13-246",NA,22.1
58687711,11,"September",1967,"ISABELLA",NA,NA,0.809,"STATEHOME",NA,NA,2.133,NA,NA,19.167
58687712,4,"August",1953,"JACKSON",NA,NA,30.352,"LIMENORTH",42.1916,-84.54726,8.229,"38-424",1.092,25.556
58687713,21,"August",1950,"ISABELLA",NA,2.9,222.582,"FIELDLITTLE",43.77249,-84.94509,15.087,"37-139",2.133,21.111
58687714,8,"July",1964,"ISABELLA",NA,NA,3.238,"LOST",43.75332,-84.91621,NA,"37-150",NA,23.889
58687716,28,"June",1944,"JACKSON",NA,3,13.76,"LILY",42.34407,-84.22199,6.4,"38-26",2.133,23.889
58687717,3,"August",1944,"JACKSON",NA,NA,27.317,"LILY",42.3136,-84.14426,2.133,"38-119",1.829,27.222
58687718,14,"June",1944,"JACKSON",NA,5.8,145.69,"PORTAGE",42.33832,-84.23481,12.191,"38-25",2.438,21.111
58687719,24,"July",1944,"JACKSON",NA,NA,5.099,"PORTAGECREEK",42.33832,-84.23481,2.438,"38-25",1.829,23
58687720,6,"July",1944,"JACKSON",NA,2.72,27.317,"PORTAGELITTLE",42.35221,-84.22037,6.4,"38-23",1.676,27
58687721,29,"June",1942,"JACKSON",NA,NA,2.347,"PRISON",42.29943,-84.39862,5.791,"38-658",0.914,24.444
58687722,23,"June",1953,"JACKSON",NA,NA,62.728,"ROUND",42.08832,-84.47259,9.144,"38-568",2.286,25.556
58687723,18,"July",1944,"JACKSON",NA,NA,2.347,"TISH",NA,NA,0.914,NA,NA,26.667
58687724,13,"August",1951,"JACKSON",NA,NA,42.493,"SWEEZY",42.16249,-84.16648,7.01,"38-336",1.829,22.778
58687725,12,"September",1940,"JACKSON",NA,NA,28.126,"SWAINS",42.15237,-84.65006,19.506,"38-612",4.267,18.2
58687726,6,"August",1951,"JACKSON",NA,NA,204.371,"VINEYARD",42.08249,-84.20981,12.801,"38-503",3.81,24.444
58687727,1,"August",1944,"JACKSON",NA,NA,6.556,"WALZ",NA,NA,1.219,NA,NA,25.556
58687728,9,"July",1943,"KALAMAZOO",NA,0.8,80.939,"BARTON",42.09804,-85.56398,15.849,"39-335",NA,26.667
58687729,3,"July",1953,"KALAMAZOO",NA,NA,424.929,"AUSTIN",42.1736,-85.55204,3.353,"39-263",0.914,20.556
58687730,11,"July",1936,"JACKSON",NA,NA,4.249,"WATERLOOMILL",NA,NA,3.048,NA,2.743,26.667
58687731,4,"August",1945,"KALAMAZOO",NA,NA,28.329,"EAGLE",42.32582,-85.32093,9.753,"39-145",2.438,25
58687732,NA,"August",1950,"KALAMAZOO",NA,NA,90.652,"EAGLE",42.2186,-85.72009,2.438,"39-275",NA,NA
58687733,3,"September",1939,"KALAMAZOO",NA,NA,2.064,"GOSLINS",42.4044,-85.33621,3.657,"39-20",1.219,21.4
58687734,4,"August",1945,"KALAMAZOO",NA,NA,28.329,"EAGLE",42.32582,-85.32093,9.753,"39-145",2.438,25
58687735,11,"August",1952,"KALAMAZOO",NA,NA,29.543,"EAGLE",42.32582,-85.32093,9.753,"39-145",2.133,23.333
58687736,14,"July",1953,"KALAMAZOO",NA,NA,89.842,"GOURDNECK",42.15804,-85.57898,15.849,"39-270",2.286,26.111
58687737,4,"September",1952,"KALAMAZOO",NA,NA,1.012,"GREEN",42.39749,-85.38537,1.524,"39-14",NA,17.778
58687738,7,"August",1945,"KALAMAZOO",NA,0.1,279.239,"INDIAN",42.15277,-85.48426,21.03,"39-249",3.048,NA
58687739,30,"June",1953,"KALAMAZOO",NA,NA,232.699,"LONG",42.19499,-85.5237,17.373,"39-244",4.115,26.111
58687740,5,"August",1952,"KALAMAZOO",NA,NA,2.55,"LOST",42.29471,-85.30565,4.724,"39-164",1.829,20.556
58687741,13,"August",1952,"KALAMAZOO",NA,NA,0.769,"JACKSON",NA,NA,4.877,NA,2.133,18.889
58687742,15,"August",1961,"KALAMAZOO",NA,NA,28.329,"LYONS",42.30749,-85.5112,12.191,"39-195",4.267,23.889
58687743,28,"July",1952,"KALAMAZOO",NA,NA,4.492,"LAWLER",42.30888,-85.35231,7.315,"39-156",2.743,26.667
58687744,NA,"August",1950,"KALAMAZOO",NA,NA,20.235,"PRETTY",42.1936,-85.72926,NA,"39-299",NA,NA
58687745,8,"July",1943,"KALAMAZOO",NA,1.51,40.469,"PAWPAWLITTLE",42.15999,-85.74981,17.22,"39-312",NA,24.444
58687746,28,"August",1950,"KALAMAZOO",NA,0,48.563,"SHERMAN",42.35027,-85.38926,10.667,"39-62",4.267,23.889
58687747,28,"July",1952,"KALAMAZOO",NA,NA,9.713,"WHITFORD",42.30999,-85.35731,7.62,"39-154",2.133,26.667
58687748,8,"July",1953,"KALAMAZOO",NA,NA,135.573,"WEST",42.18638,-85.57398,3.657,"39-262",0.381,27.778
58687749,14,"October",1959,"KALKASKA",NA,NA,NA,"ANTRIM",44.78352,-85.19941,NA,"40-319",NA,NA
58687750,13,"August",1930,"KALKASKA",NA,NA,NA,"ABBOT",44.74043,-85.12111,NA,"40-163",NA,NA
58687751,25,"August",1930,"KALKASKA",NA,NA,NA,"ANTRIM",44.78352,-85.19941,NA,"40-319",NA,NA
58687752,13,"August",1930,"KALKASKA",NA,NA,NA,"ABBOT",44.74043,-85.12111,NA,"40-163",NA,NA
58687753,25,"August",1930,"KALKASKA",NA,NA,NA,"ANTRIM",44.78352,-85.19941,NA,"40-319",NA,NA
58687754,2,"September",1930,"KALKASKA",NA,NA,NA,"BASS",44.65693,-85.20399,NA,"40-48",NA,NA
58687755,2,"September",1930,"KALKASKA",NA,NA,NA,"BASS",44.65693,-85.20399,NA,"40-48",NA,NA
58687756,4,"August",1955,"KALKASKA",NA,0.4,46.135,"BLUEBIG",44.80777,-84.89343,26.212,"40-252",2.438,27.778
58687757,6,"August",1930,"KALKASKA",NA,NA,NA,"BEAR",44.72916,-84.94399,NA,"40-104",NA,NA
58687758,21,"July",1948,"KALKASKA",NA,5,21.449,"BASS",44.80211,-84.88414,12.801,"40-244",6.705,26.111
58687759,12,"August",1930,"KALKASKA",NA,NA,NA,"BIRD",44.75719,-85.16474,NA,"40-156",NA,NA
58687760,16,"July",1943,"KALKASKA",NA,3,45.73,"BLUEBIG",44.80777,-84.89343,29.259,"40-252",NA,23.722
58687761,29,"July",1930,"KALKASKA",NA,NA,NA,"BLUEBIG",44.80777,-84.89343,NA,"40-252",NA,NA
58687762,29,"July",1930,"KALKASKA",NA,NA,NA,"CROOKEDSOUTH",44.83666,-84.90371,NA,"40-214",NA,NA
58687763,18,"August",1930,"KALKASKA",NA,NA,NA,"CRAWFORD",44.7286,-85.07899,NA,"40-145",NA,NA
58687764,16,"August",1955,"KALKASKA",NA,NA,21.449,"CUB",44.71888,-84.95371,7.315,"40-106",2.337,26.667
58687765,3,"August",1955,"KALKASKA",NA,0,22.056,"BLUENORTH",44.81666,-84.89649,23.773,"40-216",1.981,27.778
58687766,9,"August",1955,"KALKASKA",NA,NA,9.713,"EAGLE",44.83582,-84.94621,8.534,"40-209",3.2,25.556
58687767,NA,NA,1948,"KALKASKA",NA,0.3,21.044,"GUERNSEYBIG",44.7111,-85.32704,12.191,"40-192",4.877,23.333
58687768,17,"August",1959,"KALKASKA",NA,NA,34.804,"ISLAND",44.7261,-85.29149,3.657,"40-187",NA,NA
58687769,7,"August",1930,"KALKASKA",NA,NA,NA,"CUB",44.71888,-84.95371,NA,"40-106",NA,NA
58687770,24,"July",1947,"KALKASKA",NA,0.18,10.522,"LOG",44.74971,-85.14649,19.6,"40-161",3.657,26.4
58687771,11,"August",1930,"KALKASKA",NA,NA,NA,"LOG",44.74971,-85.14649,NA,"40-161",NA,NA
58687772,8,"August",1955,"KALKASKA",NA,NA,348.037,"MANISTEE",44.78249,-85.02065,5.486,"40-117",1.753,27.778
58687773,30,"June",1930,"KALKASKA",NA,NA,NA,"MANISTEE",44.78249,-85.02065,NA,"40-117",NA,NA
58687774,5,"July",1930,"KALKASKA",NA,NA,NA,"PERCH",44.7536,-85.02287,NA,"40-137",NA,NA
58687775,7,"July",1948,"KALKASKA",NA,NA,13.355,"OXBOW",44.82666,-84.97732,NA,"40-279",6.096,26
58687776,10,"July",1930,"KALKASKA",NA,NA,NA,"OXBOW",44.82666,-84.97732,NA,"40-279",NA,NA
58687777,17,"August",1930,"KALKASKA",NA,NA,NA,"PALMER",44.72777,-85.11815,NA,"40-169",NA,NA
58687778,13,"July",1930,"KALKASKA",NA,NA,NA,"PICKEREL",44.80027,-84.97732,NA,"40-295",NA,NA
58687779,20,"July",1948,"KALKASKA",NA,0.6,8.094,"RAINBOW",44.81166,-85.08704,13.106,"40-292",5.486,26.111
58687780,21,"August",1930,"KALKASKA",NA,NA,NA,"RAINBOW",44.81166,-85.08704,NA,"40-292",NA,NA
58687781,19,"August",1957,"KALKASKA",NA,1.2,32.78,"PICKEREL",44.80027,-84.97732,22.249,"40-295",NA,21.667
58687782,23,"August",1955,"KALKASKA",NA,0.6,16.188,"SELKIRKSOUTH",44.73054,-85.12704,10.667,"40-165",NA,24.444
58687783,23,"June",1948,"KALKASKA",NA,NA,16.997,"SMITHS",44.76499,-85.32704,NA,"40-174",NA,NA
58687784,14,"July",1943,"KALKASKA",NA,0.4,54.229,"STARVATION",44.84666,-84.94787,18.287,"40-207",6.096,25.111
58687785,19,"July",1930,"KALKASKA",NA,NA,NA,"STARVATION",44.84666,-84.94787,NA,"40-207",NA,NA
58687786,22,"August",1930,"KALKASKA",NA,NA,NA,"WELLSOUTH",44.81817,-85.07781,NA,"40-283",NA,NA
58687787,1,"September",1930,"KALKASKA",NA,NA,NA,"TWENTY-EIGHTS",44.62434,-85.17434,NA,"40-56",NA,NA
58687788,21,"August",1947,"KALKASKA",NA,NA,83.772,"TWINBIG",44.82193,-84.96482,27.431,"40-224",3.657,25.556
58687789,11,"July",1930,"KALKASKA",NA,NA,NA,"TWINBIG",44.82193,-84.96482,NA,"40-224",NA,NA
58687790,7,"July",1930,"KALKASKA",NA,NA,NA,"TWINLITTLE",44.81693,-84.9701,NA,"40-223",NA,NA
58687791,11,"August",1947,"KALKASKA",NA,NA,40.874,"TWINLITTLE",44.81693,-84.9701,12.679,"40-223",3.962,25.6
58687792,19,"June",1942,"KENT",NA,NA,4.087,"BLACK",43.22332,-85.62926,8.229,"41-729",2.743,22.5
58687793,19,"June",1942,"KENT",NA,NA,4.087,"BLACK",43.22332,-85.62926,8.229,"41-729",2.743,22.5
58687794,19,"June",1942,"KENT",NA,NA,19.83,"BLUE",43.26471,-85.35759,11.887,"41-566",2.743,23.4
58687795,19,"June",1942,"KENT",NA,NA,19.83,"BLUE",43.26471,-85.35759,11.887,"41-566",2.743,23.4
58687796,5,"September",1952,"KENT",NA,NA,30.352,"BROWERBIG",43.12193,-85.48065,6.096,"41-501",NA,22.222
58687797,19,"August",1953,"KENT",NA,NA,14.164,"BYRNE",43.05082,-85.37426,9.753,"41-311",NA,25.722
58687798,5,"September",1952,"KENT",NA,NA,4.047,"BUTTON",43.02082,-85.62176,8.385,"41-214",NA,19.444
58687799,1,"September",1954,"KENT",NA,NA,48.563,"CAMP",43.17665,-85.66593,14.325,"41-516",3.962,23.222
58687800,20,"August",1953,"KENT",NA,NA,76.892,"CAMPAU",42.84027,-85.44787,12.801,"41-45",NA,24.167
58687801,20,"August",1953,"KENT",NA,NA,24.282,"CAMPBELL",42.81138,-85.42565,15.849,"41-29",NA,24.167
58687802,NA,"June",1953,"KENT",NA,NA,14.164,"DEAN",43.02971,-85.60954,4.572,"41-209",NA,NA
58687803,30,"August",1974,"KENT",NA,NA,50.587,"CAMPAU",42.84027,-85.44787,15.544,"41-45",2.438,23.889
58687804,8,"September",1952,"KENT",NA,NA,8.822,"DEER",43.1536,-85.32398,8.839,"41-454",4.724,22.222
58687805,21,"June",1942,"KENT",NA,NA,1.497,"FRANT",43.25943,-85.35732,3.657,"41-584",2.743,24.1
58687806,21,"June",1942,"KENT",NA,NA,1.497,"FRANT",43.25943,-85.35732,3.657,"41-584",2.743,24.1
58687807,19,"June",1942,"KENT",NA,NA,5.787,"LINCOLNLITTLE",43.24415,-85.36037,7.62,"41-586",2.743,23.4
58687808,15,"June",1942,"KENT",NA,4.1,166.329,"LINCOLNLITTLE",43.24415,-85.36037,20.421,"41-586",3.657,20.556
58687809,22,"November",1950,"KENT",NA,0,14.164,"LIME",43.20665,-85.63732,7.62,"41-510",3.353,21.111
58687810,15,"June",1942,"KENT",NA,4.1,166.329,"LINCOLNLITTLE",43.24415,-85.36037,20.421,"41-586",3.657,20.556
58687811,17,"August",1953,"KENT",NA,NA,12.141,"GOVE",42.89999,-85.45565,25.907,"41-133",NA,26.889
58687812,19,"June",1942,"KENT",NA,NA,5.787,"LINCOLNLITTLE",43.24415,-85.36037,7.62,"41-586",2.743,23.4
58687813,12,"September",1952,"KENT",NA,NA,42.088,"MASTON",43.27499,-85.35565,14.63,"41-559",2.438,21.111
58687814,18,"August",1953,"KENT",NA,NA,24.282,"OLINBIG",43.20693,-85.65315,13.106,"41-731",NA,24.444
58687815,1,"September",1954,"KENT",NA,NA,12.141,"MEAD",43.09971,-85.67037,18.287,"41-348",NA,22.5
58687816,20,"July",1955,"KENT",NA,0,129.502,"MURRAY",43.03999,-85.37954,21.945,"41-176",3.505,30
58687817,2,"August",1961,"KENT",NA,NA,90.247,"PINEISLANDBIG",43.10138,-85.36593,13.715,"41-278",2.286,25.556
58687818,18,"August",1953,"KENT",NA,NA,70.822,"PINEISLANDLITTLE",43.09277,-85.65509,16.154,"41-347",NA,24.556
58687819,30,"August",1974,"KENT",NA,NA,107.244,"REEDS",42.95054,-85.60343,15.544,"41-255.1",1.829,23.889
58687820,22,"August",1950,"KENT",NA,0,16.188,"ROUND",43.06277,-85.37759,16.763,"41-304",NA,22.5
58687821,17,"August",1953,"KENT",NA,NA,60.704,"ROUND",43.06277,-85.37759,16.763,"41-304",NA,24.889
58687822,22,"August",1950,"KENT",NA,NA,80.939,"SCALLY",43.06582,-85.36565,18.287,"41-305",3.657,22.778
58687823,15,"August",1949,"KENT",NA,NA,38.648,"SAND",43.29366,-85.52995,10.667,"41-615",2.743,25.556
58687824,31,"August",1954,"KENT",NA,NA,6.07,"SPRING",43.25995,-85.67714,5.181,"41-750",NA,20.556
58687825,15,"August",1956,"KENT",NA,NA,8.094,"SCOTCH",43.08582,-85.64426,8.534,"41-349",NA,24.5
58687826,2,"September",1954,"KENT",NA,NA,8.094,"TOOHEY",43.08777,-85.40287,10.667,"41-290",NA,23.611
58687827,16,"June",1952,"KENT",NA,1.2,34.804,"SCRAM",43.16443,-85.4112,25.907,"41-433",4.267,25.556
58687828,23,"September",1953,"KENT",NA,NA,72.845,"SILVER",43.09138,-85.49148,11.277,"41-324",3.962,24.167
58687829,31,"August",1954,"KENT",NA,NA,32.376,"ZIEGENFUSS",43.17749,-85.33843,12.191,"41-417",NA,23.333
58687830,23,"June",1952,"KENT",NA,NA,169.162,"WABASISBIG",43.13804,-85.37732,17.373,"41-464",2.591,23.889
58687831,11,"August",1938,"KEWEENAW",NA,NA,82.558,"BAILEY",47.45749,-88.09843,2.743,"42-93",0.914,20
58687832,5,"August",1949,"KEWEENAW",NA,NA,12.141,"CLEAR",47.42387,-88.03566,3.048,"42-91",2.133,22.222
58687833,7,"July",1967,"KEWEENAW",NA,NA,10.117,"CENTRAL",47.40582,-88.19316,3.657,"42-140",1.524,19.778
58687834,24,"September",1941,"KEWEENAW",NA,NA,1.457,"ELIZA",47.45026,-88.17204,2.438,"42-100",2.133,15
58687835,1,"August",1938,"KEWEENAW",NA,4.1,93.484,"FANNYHOOE",47.4636,-87.86427,14.63,"42-146",3.048,21.7
58687836,24,"June",1952,"KEWEENAW",NA,NA,NA,"GLAZON",47.47499,-88.0001,NA,"42-150",NA,21.111
58687837,19,"July",1938,"KEWEENAW",NA,4.5,581.951,"GRATIOT",47.35304,-88.12899,23.773,"42-36",4.877,21
58687838,2,"September",1941,"KEWEENAW",NA,NA,463.78,"LACLABELLE",47.37443,-88.01177,11.887,"42-33",2.438,18.4
58687839,5,"August",1938,"KEWEENAW",NA,0.5,21.246,"MANGANESE",47.45471,-87.88316,8.229,"42-66",2.438,22.2
58687840,5,"August",1938,"KEWEENAW",NA,0.5,21.246,"MANGANESE",47.45471,-87.88316,8.229,"42-66",2.438,22.2
58687841,19,"June",1952,"KEWEENAW",NA,NA,NA,"SCHLATTER",47.42971,-87.7401,NA,"42-61",NA,NA
58687842,8,"August",1957,"KEWEENAW",NA,NA,4.856,"SENECA",47.31526,-88.37454,1.829,"42-50",NA,22.778
58687843,8,"August",1957,"KEWEENAW",NA,NA,4.856,"SENECA",47.31526,-88.37454,1.829,"42-50",NA,22.778
58687844,1,"September",1953,"LAKE",NA,NA,121.408,"BASSBIG",44.08304,-85.97787,14.63,"43-199",NA,26.667
58687845,25,"July",1938,"KEWEENAW",NA,NA,281.263,"MEDORA",47.44221,-87.98232,9.144,"42-86",2.743,22.2
58687846,9,"September",1953,"LAKE",NA,NA,21.854,"BASSLITTLE",44.09165,-85.96815,13.715,"43-272",NA,NA
58687847,3,"September",1953,"LAKE",NA,NA,367.058,"STARBIG",43.83277,-85.94454,7.62,"43-95",NA,30
58687848,23,"June",1937,"LAKE",NA,NA,369.081,"STARBIG",43.83277,-85.94454,7.62,"43-95",2.743,22.222
58687849,15,"May",1995,"LAKE",NA,NA,369.081,"STARBIG",43.83277,-85.94454,6.096,"43-95",2.438,25.556
58687850,4,"May",1970,"LAKE",NA,NA,2.023,"BOWMAN",43.89304,-85.97009,6.096,"43-77",NA,NA
58687851,NA,NA,1951,"LAKE",NA,NA,6.07,"BUSH",43.90443,-85.84065,NA,"43-145",NA,21.111
58687852,NA,"October",1960,"LAKE",NA,NA,23.877,"CECILIA",43.8511,-85.95787,9.144,"43-89",NA,24.444
58687853,19,"August",1956,"LAKE",NA,NA,6.313,"HAMLIN",43.90082,-85.88371,6.096,"43-54",3.353,21.667
58687854,27,"July",1956,"LAKE",NA,NA,3.399,"GUARD",NA,NA,3.353,NA,3.353,25.222
58687855,15,"September",1950,"LAKE",NA,NA,35.856,"COOL",44.15888,-85.96732,13.106,"43-237",NA,NA
58687856,6,"May",1970,"LAKE",NA,NA,4.047,"HILL",43.86582,-86.00454,6.096,"43-82",NA,NA
58687857,NA,"August",1949,"LAKE",NA,1.5,36.423,"HARPER",44.13304,-85.97343,NA,"43-254",NA,24.444
58687858,8,"September",1953,"LAKE",NA,NA,42.493,"IDLEWILD",43.8886,-85.78454,6.705,"43-37",NA,23.333
58687859,8,"August",1956,"LAKE",NA,0.53,23.634,"LSBIGANDLITTLE",NA,NA,12.801,NA,4.267,24.278
58687860,NA,"July",1960,"LAKE",NA,NA,14.164,"LEVERENTZ",43.90971,-85.82037,9.144,"43-147",NA,NA
58687861,5,"June",1995,"LAKE",NA,NA,42.493,"IDLEWILD",43.8886,-85.78454,6.705,"43-37",NA,27.222
58687862,NA,"July",1960,"LAKE",NA,NA,2.266,"LEVERENTZLITTLE",43.90665,-85.82232,9.144,"43-148",NA,NA
58687863,13,"May",1985,"LAKE",NA,NA,64.751,"LOON",44.06804,-85.9751,9.448,"43-198",5.486,24.5
58687864,8,"September",1953,"LAKE",NA,NA,38.244,"LOON",44.06804,-85.9751,12.191,"43-198",NA,NA
58687865,22,"August",1952,"LAKE",NA,NA,4.047,"MCCARTHY",44.02082,-85.95093,3.048,"43-215",NA,21.111
58687866,20,"July",1931,"LAKE","on kinne creek club estate",NA,22.339,"MILL",NA,NA,11.887,NA,NA,26.667
58687867,29,"April",1970,"LAKE",NA,NA,NA,"LOST",44.08665,-85.80148,4.877,"43-231",NA,NA
58687868,4,"August",1952,"LAKE",NA,4,19.83,"NORTH",43.86332,-85.83343,8.534,"43-59",4.877,23.889
58687869,7,"September",1952,"LAKE",NA,NA,16.188,"OLGA",44.15999,-85.56898,2.286,"43-218",NA,NA
58687870,14,"September",1953,"LAKE",NA,NA,18.616,"ORCHARD",43.85332,-85.98343,4.572,"43-87",NA,NA
58687871,5,"September",1948,"LAKE","8",NA,NA,"ORCHARD",43.85332,-85.98343,4.572,"43-87",3.048,23.333
58687872,NA,"July",1960,"LAKE",NA,NA,16.188,"OXBOW",43.85554,-85.99037,6.096,"43-88",NA,NA
58687873,9,"September",1953,"LAKE",NA,NA,15.904,"PARADISE",43.89443,-85.79593,10.058,"43-42",NA,NA
58687874,5,"June",1995,"LAKE",NA,NA,15.904,"PARADISE",43.89443,-85.79593,10.972,"43-42",4.572,26.667
58687875,22,"July",1931,"LAKE","on kinne creek club estate.",NA,9.672,"RAILROD",43.90332,-85.91982,10.667,"43-142",NA,25.556
58687876,17,"August",1949,"LAKE",NA,NA,16.188,"REED",43.85832,-85.97843,NA,"43-80",NA,25.556
58687877,14,"September",1953,"LAKE",NA,NA,7.082,"PUTMAN",43.91665,-85.84121,7.62,"43-137",NA,NA
58687878,13,"August",1956,"LAKE",NA,NA,20.437,"SAND",44.16304,-85.94037,15.239,"43-235",4.877,21.111
58687879,28,"August",1953,"LAKE",NA,NA,25.9,"SAUBLENO",44.06333,-85.94944,12.191,"43-191",NA,25.556
58687880,2,"September",1953,"LAKE",NA,NA,6.07,"SAUBLENO",44.06333,-85.94944,4.572,"43-191",NA,29.444
58687881,14,"July",1951,"LAKE",NA,NA,2.428,"SPRUCE",43.86443,-85.81621,6.096,"43-57",NA,NA
58687882,2,"September",1953,"LAKE",NA,NA,14.164,"SAUBLENO",44.06333,-85.94944,9.144,"43-191",NA,28.889
58687883,22,"July",1931,"LAKE","on kinne creek club estate",NA,3.035,"SPRING",44.05499,-85.6526,NA,"43-127",NA,NA
58687884,14,"September",1953,"LAKE",NA,NA,9.308,"SEAMAN",44.06221,-85.98482,7.62,"43-201",NA,NA
58687885,6,"May",1985,"LAKE",NA,NA,369.081,"STARBIG",43.83277,-85.94454,7.62,"43-95",NA,NA
58687886,NA,"March",1957,"LAKE",NA,NA,14.245,"STARLITTLE",43.91249,-85.83898,7.62,"43-149",NA,24.444
58687887,15,"May",1995,"LAKE",NA,NA,369.081,"STARBIG",43.83277,-85.94454,6.096,"43-95",2.438,25.556
58687888,23,"June",1937,"LAKE",NA,NA,369.081,"STARBIG",43.83277,-85.94454,7.62,"43-95",2.743,22.222
58687889,3,"September",1953,"LAKE",NA,NA,367.058,"STARBIG",43.83277,-85.94454,7.62,"43-95",NA,30
58687890,NA,"June",1951,"LAKE",NA,NA,4.047,"SWITZER",43.87388,-85.77176,9.144,"43-43",NA,24.444
58687891,4,"August",1952,"LAKE",NA,NA,4.047,"SWITZER",43.87388,-85.77176,9.144,"43-43",5.791,22.778
58687892,15,"August",1954,"LAKE",NA,NA,12.95,"WHALEN",43.90304,-85.82259,7.62,"43-49",3.81,25
58687893,20,"July",1955,"LAPEER",NA,NA,4.047,"CEDAR",43.12555,-83.20565,6.096,"44-283",3.048,29.444
58687894,12,"August",1966,"LAPEER",NA,NA,4.533,"ALGOE",42.88301,-83.44142,10.667,"44-346",NA,23.889
58687895,31,"July",1950,"LAKE",NA,NA,169.162,"WOLF",44.00249,-85.85287,3.962,"43-183",3.353,21.111
58687896,11,"September",1951,"LAPEER",NA,NA,6.07,"BASS",43.13332,-83.34648,6.096,"44-257",1.829,23.7
58687897,24,"August",1966,"LAPEER",NA,NA,22.663,"DAVIDSON",42.88499,-83.3762,20.421,"44-79",3.048,22.222
58687898,18,"August",1955,"LAPEER",NA,NA,28.329,"DAVIE",43.07388,-83.37148,12.191,"44-248",4.115,23.333
58687899,22,"June",1957,"LAPEER",NA,NA,4.047,"DIPPER",43.1861,-83.32509,12.191,"44-321",3.353,26.111
58687900,8,"August",1956,"LAPEER",NA,NA,2.266,"DUPEROW",43.12969,-83.23012,10.667,"44-281",2.438,25
58687901,5,"September",1952,"LAPEER",NA,0,48.563,"ELK",43.04193,-83.15843,16.763,"44-203",3.962,22.778
58687902,4,"August",1966,"LAPEER",NA,NA,30.352,"HEMINGWAY",42.95582,-83.41759,11.277,"44-318",3.505,24.444
58687903,19,"July",1948,"LAPEER",NA,NA,8.094,"GRASS",43.02943,-83.16287,NA,"44-204",NA,NA
58687904,16,"August",1955,"LAPEER",NA,NA,9.591,"INDIAN",44.12415,-86.00565,6.4,"43-261",1.981,24.8
58687905,25,"July",1962,"LAPEER",NA,NA,7.285,"HORTON",43.14724,-83.34445,8.534,"44-368",3.048,25.556
58687906,12,"November",1931,"LAPEER","on property of d. d. douglas.",NA,0.405,"HALFDOLLAR",42.97831,-83.27008,3.657,"44-201",NA,NA
58687907,15,"July",1952,"LAPEER",NA,NA,1.619,"MARTIN",NA,NA,3.353,"44-258",2.286,28.333
58687908,3,"August",1951,"LAPEER",NA,NA,2.023,"MARGARET",43.1261,-83.34509,2.438,"44-259",NA,24.5
58687909,12,"November",1931,"LAPEER","on estate. summer home of d. d. douglas is on lake.",NA,20.073,"MISCH",42.97499,-83.26287,NA,"44-199",NA,NA
58687910,13,"August",1958,"LAPEER",NA,NA,4.573,"MCDONALD",43.07082,-83.40343,5.181,"44-251",3.657,25
58687911,NA,"June",1966,"LAPEER",NA,NA,167.544,"NEPESSING",43.01749,-83.37176,7.62,"44-159",5.486,23.889
58687912,2,"October",1953,"LAPEER",NA,NA,4.047,"MUD",43.22277,-83.45565,16.763,"44-317",0.457,28.889
58687913,NA,NA,1966,"LAPEER",NA,NA,167.544,"NEPESSING",43.01749,-83.37176,7.62,"44-159",5.486,23.889
58687914,21,"August",1958,"LAPEER",NA,NA,21.449,"NORTH",43.2328,-83.42889,14.02,"44-313",5.791,23.889
58687915,22,"September",1953,"LAPEER",NA,NA,18.009,"MINNEWANNA",42.9452,-83.35184,7.62,"44-25",3.048,16.667
58687916,9,"May",1962,"LAPEER",NA,NA,27.519,"OTTER",43.2186,-83.46037,35.965,"44-316",2.438,25.556
58687917,29,"August",1956,"LAPEER",NA,NA,0.162,"TWINNORTH",NA,NA,5.181,"44-287",3.81,23.333
58687918,29,"August",1956,"LAPEER",NA,NA,0.445,"TWINSOUTH",NA,NA,4.572,"44-286",3.505,23
58687919,20,"October",1948,"LAPEER",NA,NA,4.047,"SAWTELL",43.1386,-83.34176,3.962,"44-230",NA,NA
58687920,2,"August",1955,"LAPEER",NA,NA,1.416,"WATTS",43.11944,-83.22688,6.705,"44-280",3.657,31.111
58687921,13,"September",1973,"LIVINGSTON",NA,NA,48.159,"BISHOP",42.49971,-83.84759,16.458,"47-68",1.829,22.222
58687922,14,"August",1956,"LIVINGSTON",NA,NA,125.455,"CHEMUNG",42.58221,-83.8487,21.335,"47-252",2.438,24.444
58687923,11,"July",1963,"LAPEER",NA,NA,1.538,"WATTS",43.11944,-83.22688,6.705,"44-280",1.981,23.333
58687924,19,"July",1939,"LIVINGSTON",NA,2.5,30.919,"GALLAGHER",42.44249,-83.86231,10.058,"47-102",2.438,23.1
58687925,7,"September",1973,"LIVINGSTON",NA,NA,30.757,"GALLAGHER",42.44249,-83.86231,9.144,"47-102",1.219,25
58687926,13,"July",1939,"LIVINGSTON",NA,2.25,103.966,"STRAWBERRY",42.44916,-83.84148,15.849,"47-101",2.591,25.6
58687927,21,"August",1973,"LIVINGSTON",NA,NA,106.03,"THOMPSON",42.61249,-83.91287,16.154,"47-379",3.962,22.778
58687928,11,"July",1939,"LIVINGSTON","70",4.35,62.606,"ZUKEY",42.45999,-83.8462,13.411,"47-97",2.083,25.4
58687929,28,"August",1940,"LIVINGSTON",NA,3.4,61.514,"SILVER",42.62865,-83.71883,12.801,"47-556",2.743,20
58687930,7,"September",1973,"LIVINGSTON",NA,NA,104.006,"STRAWBERRY",42.44916,-83.84148,15.239,"47-101",1.524,23.889
58687931,30,"August",1954,"LUCE",NA,11.7,16.997,"BEAVERHOUSE",46.59888,-85.68066,19.201,"48-634",6.553,18.889
58687932,29,"June",1954,"LUCE",NA,4.2,31.161,"BASS",46.46388,-85.71704,23.773,"48-171",4.877,19.444
58687933,29,"June",1953,"LUCE",NA,NA,10.117,"BELLE",46.4861,-85.80831,12.191,"48-222",NA,17.222
58687934,29,"June",1953,"LUCE",NA,NA,10.117,"BELLE",46.4861,-85.80831,5.181,"48-222",NA,21.111
58687935,6,"August",1952,"LUCE",NA,NA,72.845,"BASS",46.46388,-85.71704,19.811,"48-171",NA,21
58687936,2,"July",1953,"LUCE",NA,NA,5.018,"BELLE",46.4861,-85.80831,1.524,"48-222",NA,26.111
58687937,12,"October",1949,"LUCE",NA,NA,121.408,"BODI",46.70082,-85.32704,NA,"48-681",NA,13.889
58687938,16,"July",1947,"LUCE","8",NA,118.171,"PIKELITTLE",46.64471,-85.4251,NA,"48-481",3.048,21.3
58687939,27,"August",1936,"LUCE","state forest camp grounds. boat landings  cottages",NA,317.685,"MUSKALLONGE",46.66943,-85.63177,6.096,"48-566",4,17.3
58687940,24,"August",1954,"LUCE",NA,10.8,26.71,"CAMPEIGHT",46.59943,-85.67038,23.164,"48-643",8.229,20
58687941,16,"July",1947,"LUCE","8",NA,118.171,"PIKE",46.64193,-85.40732,NA,"48-480",3.048,21.3
58687942,1,"August",1955,"LUCE",NA,NA,9.753,"PRATT",46.6061,-85.68871,11.887,"48-623",5.486,25.556
58687943,NA,NA,1948,"LUCE",NA,NA,41.684,"TWIN",46.30899,-85.5349,18.592,"48-27",NA,NA
58687944,19,"July",1949,"LUCE",NA,0.6,8.094,"TANK",46.60165,-85.74454,14.325,"48-628",6.4,21.111
58687945,31,"July",1947,"LUCE",NA,4.2,2.55,"SYPHON",46.44804,-85.73954,14.325,"48-175",4.572,15
58687946,7,"September",1954,"LUCE",NA,12.6,19.021,"PRETTY",46.6011,-85.6601,20.725,"48-639",10.667,17.778
58687947,13,"October",1949,"LUCE",NA,NA,2.428,"SYPHON",46.44804,-85.73954,14.325,"48-175",NA,13.333
58687948,27,"July",1942,"MACKINAC",NA,7.1,1711.858,"BREVROOT",45.99999,-84.93343,9.144,"49-45",1.829,21
58687949,27,"July",1948,"MACKINAC",NA,NA,402.671,"EAST",46.12638,-84.80427,5.486,"49-166",NA,NA
58687950,16,"June",1947,"MANISTEE",NA,NA,705.787,"BEAR",44.43332,-86.15287,7.2,"51-132",NA,NA
58687951,27,"July",1954,"MARQUETTE",NA,4,20.235,"ARFELIN",46.62971,-88.0601,10.667,"52-1585",NA,23.3
58687952,22,"October",1948,"MANISTEE",NA,NA,1051.396,"PORTAGE",44.35999,-86.24037,18.287,"51-142",NA,NA
58687953,29,"August",1938,"MARQUETTE",NA,NA,10.805,"TROUTBIG",46.34554,-87.34343,6.705,"52-710",2.133,19.9
58687954,29,"June",1954,"MARQUETTE",NA,4.2,31.161,"BASS",46.25888,-87.37093,23.773,"52-196",4.877,19.444
58687955,28,"September",1939,"MARQUETTE",NA,0,26.285,"CHAINOFS",46.2686,-87.93149,16.763,"52-576",2.133,23
58687956,7,"September",1973,"MARQUETTE",NA,NA,26.305,"CHAINOFS",46.2686,-87.93149,15.239,"52-576",1.524,26.111
58687957,11,"June",1969,"MARQUETTE",NA,NA,26.912,"ARFELIN",46.62971,-88.0601,12.191,"52-1585",NA,18.889
58687959,12,"September",1955,"MARQUETTE",NA,0.5,13.153,"CLEAR",46.5858,-87.95761,9.144,"52-1360",3.657,16.111
58687960,22,"July",1940,"MARQUETTE",NA,5.1,7.77,"ISLAND",46.30048,-88.0253,12.191,"52-639",3.505,25.2
58687961,12,"July",1978,"MARQUETTE",NA,NA,7.77,"ISLAND",46.67165,-87.7876,9.144,"52-1502",NA,NA
58687962,12,"August",1937,"MARQUETTE",NA,0,34.804,"INDIAN",46.59221,-88.08454,5.791,"52-1412",1.829,26.1
58687963,27,"August",1946,"MARQUETTE",NA,NA,63.132,"FISH",46.49749,-87.9626,9.144,"52-1152",1.067,17.9
58687964,12,"August",1937,"MARQUETTE",NA,3.8,43.707,"WHITEGOATLITTLE",46.59943,-88.07121,4.267,"52-1607",2.438,24.4
58687965,27,"August",1946,"MARQUETTE",NA,NA,188.588,"TEAL",46.51304,-87.62815,9.753,"52-1288",1.676,87.778
58687966,12,"June",1969,"MARQUETTE",NA,NA,50.182,"WOLF",46.59165,-87.89399,3.962,"52-1356",NA,20
58687967,5,"July",1950,"MARQUETTE",NA,NA,NA,"WOLF",46.59165,-87.89399,3.962,"52-1356",NA,20
58687968,18,"June",1940,"MENOMINEE",NA,NA,44.638,"BASS",45.4136,-87.81565,4.877,"55-27",2.438,20.3
58687969,5,"July",1950,"MARQUETTE",NA,NA,NA,"WOLF",46.59165,-87.89399,3.962,"52-1356",NA,20
58687970,7,"July",1940,"MENOMINEE",NA,4.2,8.58,"ANN",45.45554,-87.75037,8.839,"55-16",1.676,26
58687971,23,"August",1940,"MENOMINEE",NA,NA,0.826,"DAWN",45.54609,-87.76642,5.181,"55-39",1.524,17.8
58687972,22,"August",1940,"MENOMINEE",NA,NA,2.064,"LINNBECK",45.48582,-87.7376,7.62,"55-42",2.743,18.8
58687973,4,"September",1949,"MENOMINEE",NA,NA,1.829,"LINNBECK",45.48582,-87.7376,6.4,"55-42",3.353,19.444
58687974,18,"June",1940,"MENOMINEE",NA,1.5,115.014,"LONG",45.41971,-87.8351,13.106,"55-31",1.524,18.6
58687975,12,"August",1941,"MISSAUKEE",NA,NA,803.399,"MISSAUKEE",44.32221,-85.24676,8.382,"57-45",2.438,21.7
58687976,22,"August",1942,"MONTMORENCY",NA,3,18.818,"CROOKED",44.98022,-84.1473,15.544,"60-91",5.791,21.2
58687977,17,"February",1960,"MONTMORENCY",NA,NA,46.54,"GAYLANTA",44.97721,-84.30343,15.239,"60-71",NA,NA
58687978,4,"September",1937,"MONTMORENCY",NA,6.4,10.239,"JACKSON",45.08666,-84.16065,7.924,"60-134",5.334,25.3
58687979,21,"June",1955,"MONTMORENCY",NA,1.1,90.652,"RUSH",45.11971,-84.09649,8.229,"60-223",2.438,19.444
58687980,29,"August",1956,"MUSKEGON",NA,NA,44.921,"TWINEAST",43.36943,-86.17509,5.791,"61-109",2.743,23.333
58687981,24,"August",1933,"MONTMORENCY",NA,NA,18.211,"JACKSON",45.08666,-84.16065,7.62,"60-134",NA,NA
58687982,15,"September",1947,"NEWAYGO","30",NA,45.73,"SYLVAN",43.46478,-85.78538,18.592,"62-81",3.353,23.722
58687983,23,"June",1937,"NEWAYGO","dance hall and confectionary  felix lepinski prop.",NA,64.751,"NICHOLS",43.72638,-85.90621,17.373,"62-358",4.115,21.111
58687984,3,"September",1971,"OAKLAND",NA,NA,68.798,"SEVENBIG",42.81876,-83.67895,17.678,"63-1691",NA,22.222
58687986,27,"June",1973,"NEWAYGO",NA,NA,NA,"NICHOLS",43.72638,-85.90621,15.239,"62-358",NA,24.444
58687987,24,"July",1939,"OAKLAND",NA,0.2,6.006,"DEEP",42.71603,-83.6108,18.287,"63-1064",6.096,25
58687988,27,"September",1950,"OAKLAND",NA,NA,14.367,"SILVERLITTLE",42.67666,-83.3287,9.144,"63-872",NA,28.889
58687989,NA,"October",1952,"OAKLAND",NA,NA,36.018,"LOWERPETTIBONE",42.6261,-83.60982,12.496,"63-673",4.267,27.222
58687990,14,"August",1973,"OAKLAND",NA,NA,26.71,"MILFORDHURON",NA,NA,5.486,NA,1.524,25
58687991,4,"September",1938,"OAKLAND",NA,NA,26.71,"MILFORDHURON",NA,NA,5.486,NA,3.353,20
58687992,13,"September",1936,"OAKLAND",NA,NA,35.168,"PLEASANT",42.64166,-83.4362,9.144,"63-915",3.353,23.5
58687993,17,"July",1951,"OAKLAND",NA,NA,21.854,"PHIPPS",42.84527,-83.50287,8.534,"63-1393",NA,26.111
58687994,21,"August",1956,"OCEANA",NA,NA,75.678,"CAMPBELL",43.64582,-86.10843,12.496,"64-61",1.829,21.667
58687996,17,"July",1945,"OAKLAND",NA,2.8,16.997,"UPPERPETTIBONE",42.66693,-83.61315,16.763,"63-564",NA,21.667
58687997,15,"August",1956,"OCEANA",NA,NA,11.615,"HEITMANMUD",43.50971,-86.29315,NA,"64-45",2.743,21.667
58687998,16,"July",1954,"OCEANA",NA,NA,NA,"MCLAREN",43.63027,-86.04897,NA,"64-56",NA,NA
58687999,6,"August",1957,"OCEANA",NA,NA,NA,"PEBAWMA",43.74582,-86.15287,NA,"64-219",3.353,24.444
58688000,21,"June",1938,"OGEMAW",NA,NA,17.645,"AMBROSE",44.40943,-84.26176,3.048,"65-102",1.524,25
58688001,19,"August",1949,"OGEMAW",NA,NA,109.672,"AUSABLE",44.42999,-83.92037,15.849,"65-200",4.877,23.889
58688002,22,"September",1950,"OAKLAND",NA,NA,14.974,"SCHOOLHOUSE",42.68555,-83.34843,14.934,"63-869",NA,27.778
58688003,11,"July",1950,"OCEANA",NA,NA,279.239,"SILVER",43.66776,-86.50482,7.62,"64-188",1.829,20.556
58688004,17,"August",1949,"OGEMAW",NA,0.4,19.83,"AUSABLELTL",44.42999,-83.92037,13.715,"65-200",4.877,25
58688005,23,"August",1971,"OAKLAND",NA,NA,NA,"UPPERPROUD",42.56805,-83.52287,11.277,"63-278",0.254,23.889
58688006,8,"July",1946,"OGEMAU",NA,NA,5.221,"JEWETT",44.39553,-84.02895,5.181,"65-135",3.657,25.556
58688007,18,"August",1948,"OGEMAW",NA,NA,9.106,"CLEART",44.22027,-83.99621,15.239,"65-61",2.438,22.778
58688008,10,"September",1962,"OGEMAW",NA,NA,70.417,"DEASENORTH",44.40499,-83.89204,15.239,"65-143",2.133,18.333
58688009,16,"August",1949,"OGEMAW",NA,NA,70.417,"DEASENORTH",44.40499,-83.89204,15.239,"65-143",2.743,25.9
58688010,16,"June",1938,"OGEMAW",NA,NA,69.284,"CLEART",44.40499,-84.28315,15.849,"65-104",5.486,20.4
58688011,25,"June",1946,"OGEMAW",NA,0,52.61,"DEVOE",44.40081,-84.0265,16.154,"65-133",5.486,21.667
58688012,16,"August",1949,"OGEMAW",NA,NA,108.863,"DEASESOUTH",44.38971,-83.89732,10.363,"65-152",2.133,26
58688013,1,"July",1946,"OGEMAW",NA,0,34.399,"GROUSEHAVEN",44.4111,-84.02093,16.458,"65-123",2.743,24
58688014,9,"July",1938,"OGEMAW",NA,NA,69.446,"HENDERSON",44.34166,-84.00732,7.315,"65-142",1.829,25
58688015,20,"June",1938,"OGEMAW",NA,NA,14.933,"HORSESHOE",44.41666,-84.28065,7.315,"65-106",4.877,21.6
58688016,30,"June",1938,"OGEMAW",NA,NA,34.561,"JOHNSON",44.20804,-83.95704,7.62,"65-63",2.133,20.9
58688017,9,"October",1952,"OGEMAW",NA,NA,NA,"ELNI",44.39999,-84.27371,3.048,"65-110",NA,8.889
58688018,3,"July",1946,"OGEMAW",NA,NA,29.34,"GREBET",44.40332,-84.00565,5.486,"65-121",2.743,23.333
58688019,11,"July",1946,"OGEMAW",NA,NA,0.607,"DEVILSWASHBASIN",44.40228,-84.03304,NA,"65-136",1.524,28.333
58688020,16,"August",1949,"OGEMAW",NA,NA,32.983,"LAIRD",44.36388,-83.91037,8.229,"65-159",2.743,24.9
58688021,2,"September",1954,"OGEMAW",NA,NA,69.607,"HARDWOOD",44.24582,-83.99426,10.667,"65-60",1.829,24.444
58688022,15,"June",1960,"ONTONAGON",NA,6.9,25.9,"COUNTYLINE",46.33332,-89.2751,19.811,"66-222",7.315,23.889
58688023,2,"July",1938,"OGEMAW",NA,0.5,75.273,"GEORGE",44.39916,-83.97315,28.955,"65-151",2.133,24.8
58688024,25,"July",1950,"OGEMAW",NA,1.2,36.018,"GEORGE",44.20916,-84.2476,14.63,"65-8",4.877,22.222
58688025,14,"August",1956,"ONTONAGON",NA,NA,13.557,"COURTNEY",46.75276,-88.9376,12.496,"66-447",4.572,20
58688026,22,"July",1959,"ONTONAGON",NA,NA,890.328,"BONDSFALLSRESER",46.39443,-89.10343,NA,"66-31",1.402,23.333
58688027,20,"August",1948,"ONTONAGON",NA,NA,14.164,"COURTNEY",46.75276,-88.9376,11.277,"66-447",3.657,22
58688028,29,"August",1941,"ONTONAGON",NA,NA,33.59,"MIRROR",46.76221,-89.76982,12.191,"66-514",2.133,17.1
58688029,28,"July",1938,"ONTONAGON",NA,NA,53.703,"HEMLOCK",46.3411,-89.35982,3.657,"66-219",1.676,22.4
58688030,22,"August",1947,"ONTONAGON",NA,4,0.405,"MASSPD",NA,NA,2.286,NA,0.381,25.556
58688031,26,"August",1941,"ONTONAGON",NA,NA,17.564,"DEADMAN",46.33526,-89.12232,10.667,"27-512",1.067,18.2
58688032,27,"August",1947,"ONTONAGON",NA,NA,4.452,"HEMLOCK",46.3411,-89.35982,11.277,"66-219",1.219,20.556
58688033,27,"August",1941,"ONTONAGON",NA,NA,2.428,"MOLLS",46.42082,-89.03371,12.191,"66-19",2.438,18.1
58688034,13,"January",1961,"ONTONAGON",NA,NA,4.047,"PENDOCKS",46.58612,-89.62118,7.924,"66-380",NA,23.889
58688035,22,"August",1947,"ONTONAGON",NA,NA,1.619,"ROCKLANDPD",NA,NA,3.962,"66-485",3.962,24.167
58688036,9,"September",1946,"ONTONAGON",NA,NA,16.188,"STEUSSER",46.45304,-89.25038,17.678,"66-293",NA,16.8
58688037,12,"August",1949,"ONTONAGON",NA,NA,12.141,"STEUSSER",46.45304,-89.25038,16.001,"66-293",3.353,23.333
58688038,17,"August",1948,"ONTONAGON",NA,NA,1.214,"STONCO",46.62554,-89.56732,3.657,"66-423",1.829,18.5
58688039,17,"August",1948,"ONTONAGON",NA,NA,1.214,"STONCO",46.62554,-89.56732,3.657,"66-423",1.829,18.5
58688040,29,"June",1955,"ONTONAGON",NA,NA,NA,"TANLUND",NA,NA,NA,NA,NA,NA
58688041,11,"September",1946,"ONTONAGON",NA,NA,8.094,"SUDDEN",46.74155,-88.90583,NA,"66-450",0.762,15.9
58688042,1,"August",1949,"ONTONAGON",NA,NA,14.164,"SUDDEN",46.74155,-88.90583,3.657,"66-450",0.914,21.111
58688043,12,"August",1954,"OSCEOLA",NA,NA,82.558,"BIG",43.86665,-85.19593,25.907,"67-1",NA,NA
58688044,16,"July",1942,"OSCEOLA",NA,0.9,16.188,"CENTER",44.10749,-85.38648,10.972,"67-377",4.267,23.7
58688045,11,"July",1966,"OSCEOLA",NA,1,NA,"HEWITT",44.09304,-85.50454,NA,"67-400",NA,26.111
58688046,7,"July",1966,"OSCEOLA",NA,NA,24.889,"DIAMOND",44.08721,-85.48621,NA,"67-399",NA,25.333
58688047,9,"July",1939,"OSCEOLA",NA,2.4,2.023,"HALFMOONT",44.02746,-85.31948,12.801,"67-229",NA,28
58688048,22,"August",1955,"OSCEOLA",NA,NA,34.399,"INDIAN",43.9611,-85.40093,15.239,"67-166",2.591,26.111
58688049,NA,"September",1936,"OSCEOLA",NA,0,13.962,"LONGLITTLE",44.02443,-85.30982,8.229,"67-228",1.829,20
58688050,16,"August",1967,"OSCEOLA",NA,NA,6.88,"MCCOY",44.01499,-85.42315,9.448,"67-257",NA,22.667
58688051,31,"August",1938,"OSCEOLA",NA,NA,149.818,"ROSE",44.06471,-85.38176,10.363,"67-242",2.514,22.1
58688052,29,"June",1966,"OSCEOLA","10",NA,NA,"LONGBIG",44.00304,-85.29815,NA,"67-237",NA,26.111
58688053,20,"June",1966,"OSCEOLA",NA,NA,62.728,"HICKS",44.02304,-85.2851,NA,"67-231",NA,24.444
58688054,31,"August",1940,"OSCODA",NA,NA,30.393,"DAVID",NA,NA,3.657,NA,1.524,10
58688055,17,"July",1960,"OSCEOLA",NA,NA,13.76,"TUBS",43.85582,-85.11482,7.924,"67-10",2.133,25
58688056,9,"July",1937,"OSCODA",NA,0.6,36.584,"LOON",44.51777,-84.13732,15.239,"68-35",8.229,25.556
58688057,14,"June",1966,"OSCEOLA",NA,NA,19.425,"WELLS",43.99582,-85.41676,18.897,"67-288",NA,20.278
58688058,16,"August",1955,"VANBUREN",NA,NA,60.704,"BROWNWOOD",42.24277,-85.91565,13.411,"80-222",5.486,26.111
58688059,11,"August",1937,"OSCODA",NA,0.6,7.285,"TWIN",44.52911,-84.14408,13.106,"68-22",8.229,26.7
58688060,18,"June",1937,"SCHOOLCRAFT","little. several parks and small camp sites. few cottages.",NA,3237.556,"INDIAN",45.99165,-86.33343,5.486,"75-69",1.219,18.333
58688061,17,"August",1954,"OTTAWA",NA,NA,43.707,"CROCKERY",43.1686,-85.85148,16.458,"70-164",3.2,23.222
58688062,14,"June",1939,"WASHTENAW",NA,NA,37.434,"ARGO",42.29117,-83.74573,3.657,"81-194",0.71,20
58688063,10,"September",1938,"WASHTENAW",NA,NA,122.218,"BARTONRES",42.30988,-83.75398,10.058,"81-179",2.438,19.8
58688064,5,"September",1941,"WASHTENAW",NA,0.6,260.623,"PORTAGEBIG",42.41738,-83.90993,25.602,"81-71",2.895,20.9
58688065,10,"September",1938,"WASHTENAW",NA,NA,122.218,"BARTON",42.30988,-83.75398,10.058,"81-179",2.438,19.8
58688066,18,"July",1931,"VANBUREN","none except small grove on south side which can be used for picnics.",NA,10.563,"WOLF",42.2986,-85.78704,12.191,"80-116.1",NA,26.111
58688067,23,"July",1936,"WASHTENAW",NA,NA,NA,"BLIND",42.41554,-84.01898,NA,"81-5",NA,NA
58688068,23,"July",1936,"WASHTENAW",NA,NA,NA,"BLIND",42.41554,-84.01898,NA,"81-5",NA,NA
58688069,28,"July",1954,"WASHTENAW","15",0,49.777,"BRUIN",42.41999,-84.03759,14.63,"81-6",NA,27.056
58688070,28,"July",1954,"WASHTENAW","15",0,49.777,"BRUIN",42.41999,-84.03759,14.63,"81-6",NA,27.056
58688071,22,"June",1936,"WASHTENAW","none to date but a camp for boys is to be built on it.",NA,14.569,"CASSIDY",42.34777,-84.07954,2.743,"81-64",NA,NA
58688072,15,"August",1944,"WASHTENAW",NA,NA,87.819,"CAVANAUGH",42.31666,-84.09926,6.096,"81-152",2.743,27
58688073,21,"August",1944,"WASHTENAW",NA,NA,18.616,"CASSIDY",42.34777,-84.07954,3.657,"81-64",NA,21.111
58688074,5,"June",1941,"WASHTENAW",NA,3.2,29.543,"CEDARBIG",42.31471,-84.07898,8.229,"81-157",2.438,21.7
58688075,7,"August",1944,"WASHTENAW",NA,NA,45.73,"CROOKED",42.32527,-84.11287,6.096,"81-147",4.877,25.556
58688076,7,"August",1944,"WASHTENAW",NA,NA,45.73,"CROOKED",42.32527,-84.11287,6.096,"81-147",4.877,25.556
58688077,16,"August",1944,"WASHTENAW",NA,NA,7.204,"DOYLE",42.31527,-84.08981,4.267,"81-159",2.895,26.667
58688078,15,"September",1938,"WASHTENAW",NA,5.5,394.577,"FORD",42.2064,-83.56044,11.582,"81-266",2.438,20.9
58688079,NA,"July",1943,"WASHTENAW",NA,0,6.718,"FRAIN",42.32888,-83.61343,9.144,"81-213",3.962,25
58688080,15,"September",1938,"WASHTENAW",NA,5.5,394.577,"FORDRES",42.2064,-83.56044,11.582,"81-266",2.438,20.9
58688081,16,"June",1939,"WASHTENAW",NA,NA,105.625,"GEDDES",42.27105,-83.6716,4.877,"81-198",0.381,21.111
58688082,16,"June",1939,"WASHTENAW",NA,NA,105.625,"GEDDES",42.27105,-83.6716,4.877,"81-198",0.381,21.111
58688083,12,"July",1941,"WASHTENAW",NA,NA,103.602,"FOURMILE",42.33777,-83.97065,5.486,"81-102",2.591,23.5
58688084,1,"July",1936,"WASHTENAW","none at present",NA,31.769,"GREEN",42.36666,-84.07509,3.962,"81-46",NA,NA
58688085,1,"July",1936,"WASHTENAW","none at present",NA,31.769,"GREEN",42.36666,-84.07509,3.962,"81-46",NA,NA
58688086,1,"July",1936,"WASHTENAW","none at present",NA,31.769,"GREEN",42.36666,-84.07509,3.962,"81-46",1.981,NA
58688087,5,"August",1942,"WASHTENAW",NA,NA,99.15,"HALFMOON",42.0986,-84.06259,26.516,"81-332",4.267,24.444
58688088,23,"July",1936,"WASHTENAW",NA,NA,NA,"HANKARD",42.36721,-84.10343,2.438,"81-45",NA,24
58688089,21,"July",1936,"WASHTENAW",NA,NA,NA,"KLINK",NA,NA,NA,NA,NA,NA
58688090,5,"September",1941,"WASHTENAW",NA,8.1,40.874,"PORTAGELITTLE",42.41471,-83.93065,12.801,"81-72",2.895,20.5
58688091,19,"June",1936,"WASHTENAW","it is being developed as a recreational area for boys and a camp is being erected",NA,53.015,"MILL",42.32943,-84.09065,7.315,"81-144",NA,NA
58688092,21,"August",1944,"WASHTENAW",NA,0.3,17.807,"LONG",42.35054,-84.06259,9.144,"81-58",2.286,22.778
58688093,20,"August",1940,"WASHTENAW",NA,0,273.978,"WHITMORE",NA,NA,19.811,NA,4.267,22.6
58688575,10,"July",1936,NA,NA,NA,NA,NA,NA,NA,NA,NA,NA,NA
58688582,30,"August",1961,NA,NA,NA,NA,NA,NA,NA,NA,NA,NA,NA
58688584,20,"August",1952,NA,NA,NA,NA,NA,NA,NA,NA,NA,NA,NA
58688586,30,"August",1961,NA,NA,NA,NA,NA,NA,NA,NA,NA,NA,NA
58688587,14,"August",1951,NA,NA,NA,NA,NA,NA,NA,NA,NA,NA,NA
58688592,11,"July",1938,NA,NA,NA,NA,NA,NA,NA,NA,NA,NA,NA
58688599,22,"July",1953,NA,NA,NA,NA,NA,NA,NA,NA,NA,NA,NA
58688602,30,"June",1941,NA,NA,NA,NA,NA,NA,NA,NA,NA,NA,NA
58688604,4,"August",1966,NA,NA,NA,NA,NA,NA,NA,NA,NA,NA,NA
58688612,11,"July",1960,NA,NA,NA,NA,NA,NA,NA,NA,NA,NA,NA
58688614,5,"November",1957,NA,NA,NA,NA,NA,NA,NA,NA,NA,NA,NA
58688616,24,"August",1950,NA,NA,NA,NA,NA,NA,NA,NA,NA,NA,NA
58688620,6,"June",1972,NA,NA,NA,NA,NA,NA,NA,NA,NA,NA,NA
58688624,15,"June",1957,NA,NA,NA,NA,NA,NA,NA,NA,NA,NA,NA
58688633,24,"August",1950,NA,NA,NA,NA,NA,NA,NA,NA,NA,NA,NA
58688634,5,"August",1957,NA,NA,NA,NA,NA,NA,NA,NA,NA,NA,NA
58688635,28,"August",1957,NA,NA,NA,NA,NA,NA,NA,NA,NA,NA,NA
58688636,27,"August",1957,NA,NA,NA,NA,NA,NA,NA,NA,NA,NA,NA
58688640,13,"June",1972,NA,NA,NA,NA,NA,NA,NA,NA,NA,NA,NA
58688641,3,"September",1946,NA,NA,NA,NA,NA,NA,NA,NA,NA,NA,NA
58688643,14,"July",1942,NA,NA,NA,NA,NA,NA,NA,NA,NA,NA,NA
58688646,22,"August",1952,NA,NA,NA,NA,NA,NA,NA,NA,NA,NA,NA
58688647,12,"July",1962,NA,NA,NA,NA,NA,NA,NA,NA,NA,NA,NA
58688648,9,"August",NA,NA,NA,NA,NA,NA,NA,NA,NA,NA,NA,NA
58688652,11,"June",1975,NA,NA,NA,NA,NA,NA,NA,NA,NA,NA,NA
58688659,22,"August",1957,NA,NA,NA,NA,NA,NA,NA,NA,NA,NA,NA
58688660,22,"August",1957,NA,NA,NA,NA,NA,NA,NA,NA,NA,NA,NA
58688664,29,"July",1957,NA,NA,NA,NA,NA,NA,NA,NA,NA,NA,NA
58688666,20,"July",NA,NA,NA,NA,NA,NA,NA,NA,NA,NA,NA,NA
58688670,11,"July",1962,NA,NA,NA,NA,NA,NA,NA,NA,NA,NA,NA
58688673,16,"August",1954,NA,NA,NA,NA,NA,NA,NA,NA,NA,NA,NA
58688683,NA,"April",1926,NA,NA,NA,NA,NA,NA,NA,NA,NA,NA,NA
58688689,25,"June",1951,NA,NA,NA,NA,NA,NA,NA,NA,NA,NA,NA
58688691,28,"June",1950,NA,NA,NA,NA,NA,NA,NA,NA,NA,NA,NA
58688694,1,"August",1943,NA,NA,NA,NA,NA,NA,NA,NA,NA,NA,NA
58688695,25,"June",1951,NA,NA,NA,NA,NA,NA,NA,NA,NA,NA,NA
58688699,21,"August",1956,NA,NA,NA,NA,NA,NA,NA,NA,NA,NA,NA
58688718,3,"June",1975,NA,NA,NA,NA,NA,NA,NA,NA,NA,NA,NA
58688721,5,"July",1949,NA,NA,NA,NA,NA,NA,NA,NA,NA,NA,NA
58688722,1,"August",1932,NA,NA,NA,NA,NA,NA,NA,NA,NA,NA,NA
58688723,1,"August",1932,NA,NA,NA,NA,NA,NA,NA,NA,NA,NA,NA
58688724,1,"August",1932,NA,NA,NA,NA,NA,NA,NA,NA,NA,NA,NA
58688726,20,"August",1932,NA,NA,NA,NA,NA,NA,NA,NA,NA,NA,NA
58688727,26,"July",1956,NA,NA,NA,NA,NA,NA,NA,NA,NA,NA,NA
58688729,6,"October",1954,NA,NA,NA,NA,NA,NA,NA,NA,NA,NA,NA
58688731,31,"July",1956,NA,NA,NA,NA,NA,NA,NA,NA,NA,NA,NA
58688732,15,"June",1966,NA,NA,NA,NA,NA,NA,NA,NA,NA,NA,NA
58750907,14,"July",1961,NA,NA,NA,NA,NA,NA,NA,NA,NA,NA,NA
58750910,NA,"August",1960,NA,NA,NA,NA,NA,NA,NA,NA,NA,NA,NA
58754489,5,"August",1980,"GOGEBIC",NA,NA,NA,"SUMMIT",46.25637,-89.62621,NA,"27-882",NA,NA
59070442,9,"May",1927,NA,NA,NA,NA,NA,44.56605,-83.80491,NA,"1-4",NA,NA
59070443,1,"April",1926,NA,NA,NA,NA,NA,44.80416,-83.55954,NA,"1-165",NA,NA
59070444,NA,"August",1926,NA,NA,NA,NA,NA,44.80416,-83.55954,NA,"1-165",NA,NA
59070446,9,"May",1927,NA,NA,NA,NA,NA,44.45588,-83.67721,NA,"35-200",NA,NA
59070447,9,"May",1927,NA,NA,NA,NA,NA,44.43552,-83.44289,NA,"35-205",NA,NA
59070449,9,"May",1927,NA,NA,NA,NA,NA,44.47221,-83.35982,NA,"35-219",NA,NA
59070450,9,"May",1927,NA,NA,NA,NA,NA,44.47257,-83.57251,NA,"35-201",NA,NA
59070451,29,"July",1930,NA,NA,NA,NA,NA,44.80211,-84.88414,NA,"40-244",NA,NA
59070452,7,"August",1930,NA,NA,NA,NA,NA,44.72916,-84.94399,NA,"40-104",NA,NA
59070453,15,"February",1927,NA,NA,NA,NA,NA,44.72916,-84.94399,NA,"40-104",NA,NA
59070454,28,"July",1930,NA,NA,NA,NA,NA,44.8011,-84.89426,NA,"40-247",NA,NA
59070455,5,"August",1930,NA,NA,NA,NA,NA,44.72916,-84.92593,NA,"40-102",NA,NA
59070456,9,"August",1930,NA,NA,NA,NA,NA,44.73499,-84.92343,NA,"40-103",NA,NA
59070457,2,"August",1930,NA,NA,NA,NA,NA,44.72082,-84.92482,NA,"40-110",NA,NA
59070458,28,"July",1930,NA,NA,NA,NA,NA,44.81666,-84.89649,NA,"40-216",NA,NA
59070459,12,"August",1930,NA,NA,NA,NA,NA,44.74638,-85.15843,NA,"40-158",NA,NA
59070460,5,"August",1930,NA,NA,NA,NA,NA,44.68082,-84.96732,NA,"40-27",NA,NA
59070461,29,"July",1930,NA,NA,NA,NA,NA,44.83666,-84.90371,NA,"40-214",NA,NA
59070462,24,"August",1930,NA,NA,NA,NA,NA,44.81471,-85.09343,NA,"40-307",NA,NA
59070463,27,"August",1930,NA,NA,NA,NA,NA,44.7236,-85.31399,NA,"40-188",NA,NA
59070464,21,"July",1930,NA,NA,NA,NA,NA,44.83582,-84.94621,NA,"40-209",NA,NA
59070465,2,"September",1930,NA,NA,NA,NA,NA,44.63665,-85.15621,NA,"40-61",NA,NA
59070466,3,"August",1930,NA,NA,NA,NA,NA,44.75943,-84.95399,NA,"40-96",NA,NA
59070467,4,"July",1930,NA,NA,NA,NA,NA,44.76471,-85.06093,NA,"40-127",NA,NA
59070468,5,"July",1930,NA,NA,NA,NA,NA,44.7561,-85.00426,NA,"40-116",NA,NA
59070469,29,"August",1930,NA,NA,NA,NA,NA,44.7111,-85.32704,NA,"40-192",NA,NA
59070470,27,"August",1930,NA,NA,NA,NA,NA,44.71404,-85.31835,NA,"40-189",NA,NA
59070471,26,"August",1930,NA,NA,NA,NA,NA,44.75489,-85.32042,NA,"40-175",NA,NA
59070472,29,"August",1930,NA,NA,NA,NA,NA,44.71082,-85.31954,NA,"40-199",NA,NA
59070473,9,"September",1930,NA,NA,NA,NA,NA,44.56804,-85.2276,NA,"40-19",NA,NA
59070474,17,"July",1930,NA,NA,NA,NA,NA,44.80769,-84.93051,NA,"40-236",NA,NA
59070475,25,"August",1930,NA,NA,NA,NA,NA,44.7261,-85.29149,NA,"40-187",NA,NA
59070476,19,"August",1930,NA,NA,NA,NA,NA,NA,NA,NA,NA,NA,NA
59070477,4,"August",1930,NA,NA,NA,NA,NA,44.69221,-84.95093,NA,"40-112",NA,NA
59070478,30,"June",1930,NA,NA,NA,NA,NA,44.72888,-85.14176,NA,"40-167",NA,NA
59070479,18,"August",1930,NA,NA,NA,NA,NA,44.72888,-85.14176,NA,"40-167",NA,NA
59070480,9,"September",1930,NA,NA,NA,NA,NA,44.57193,-85.29871,NA,"40-16",NA,NA
59070481,11,"August",1930,NA,NA,NA,NA,NA,44.74554,-85.14343,NA,"40-160",NA,NA
59070482,3,"September",1930,NA,NA,NA,NA,NA,44.67527,-85.2076,NA,"40-47",NA,NA
59070483,5,"July",1930,NA,NA,NA,NA,NA,44.76388,-85.03621,NA,"40-123",NA,NA
59070484,20,"July",1930,NA,NA,NA,NA,NA,44.83999,-84.93815,NA,"40-211",NA,NA
59070485,5,"August",1930,NA,NA,NA,NA,NA,44.73416,-84.95482,NA,"40-105",NA,NA
59070486,17,"July",1930,NA,NA,NA,NA,NA,44.79916,-84.9326,NA,"40-237",NA,NA
59070487,NA,NA,1930,NA,NA,NA,NA,NA,44.7536,-85.02287,NA,"40-137",NA,NA
59070488,13,"July",1930,NA,NA,NA,NA,NA,44.80027,-84.97732,NA,"40-295",NA,NA
59070489,14,"August",1930,NA,NA,NA,NA,NA,44.73999,-85.10343,NA,"40-162",NA,NA
59070490,2,"July",1930,NA,NA,NA,NA,NA,44.75166,-85.0151,NA,"40-133",NA,NA
59070491,4,"September",1930,NA,NA,NA,NA,NA,44.62971,-85.17343,NA,"40-57",NA,NA
59070492,16,"August",1930,NA,NA,NA,NA,NA,44.73638,-85.12287,NA,"40-164",NA,NA
59070493,17,"August",1930,NA,NA,NA,NA,NA,44.73054,-85.12704,NA,"40-165",NA,NA
59070494,9,"November",1930,NA,NA,NA,NA,NA,44.55721,-85.24093,NA,"40-21",NA,NA
59070495,26,"August",1930,NA,NA,NA,NA,NA,44.76499,-85.32704,NA,"40-174",NA,NA
59070496,24,"August",1930,NA,NA,NA,NA,NA,44.76499,-85.32704,NA,"40-174",NA,NA
59070497,18,"July",1930,NA,NA,NA,NA,NA,44.80527,-84.91732,NA,"40-240",NA,NA
59070498,11,"July",1930,NA,NA,NA,NA,NA,44.8286,-84.99149,NA,"40-278",NA,NA
59070499,12,"July",1930,NA,NA,NA,NA,NA,44.81693,-84.9701,NA,"40-223",NA,NA
59070501,21,"August",1930,NA,NA,NA,NA,NA,44.79221,-85.10399,NA,"40-311",NA,NA
59070502,20,"July",1930,NA,NA,NA,NA,NA,44.83916,-84.94176,NA,"40-212",NA,NA
59070503,NA,"April",1926,NA,NA,NA,NA,NA,45.09166,-84.17815,NA,"60-130",NA,NA
59070504,9,"September",1930,NA,NA,NA,NA,NA,NA,NA,NA,NA,NA,NA
59070505,NA,NA,1926,NA,NA,NA,NA,NA,43.33332,-85.5812,NA,"62-12",NA,NA
59070506,NA,NA,1926,NA,NA,NA,NA,NA,43.3411,-85.80398,NA,"62-33",NA,NA
59070507,NA,NA,1926,NA,NA,NA,NA,NA,43.39665,-85.75176,NA,"62-106",NA,NA
59070508,NA,NA,1926,NA,NA,NA,NA,NA,43.50451,-85.94109,NA,"62-212",NA,NA
59070510,NA,NA,1926,NA,NA,NA,NA,NA,43.45054,-85.96482,NA,"62-128",NA,NA
59070511,NA,NA,1892,NA,NA,NA,NA,NA,43.46193,-85.78843,NA,"62-82",NA,NA
59070513,NA,NA,1926,NA,NA,NA,NA,NA,43.48082,-85.88537,NA,"62-202",NA,NA
59070514,NA,"January",1926,NA,NA,NA,NA,NA,43.74218,-85.88079,NA,"62-457",NA,NA
59070515,NA,NA,1926,NA,NA,NA,NA,NA,43.38749,-85.76843,NA,"62-28",NA,NA
59070516,NA,NA,1926,NA,NA,NA,NA,NA,43.48082,-85.88537,NA,"62-202",NA,NA
59070517,NA,NA,1926,NA,NA,NA,NA,NA,43.71165,-86.03093,NA,"62-389",NA,NA
59070518,NA,NA,1926,NA,NA,NA,NA,NA,43.77082,-85.89176,NA,"62-441",NA,NA
59070519,NA,NA,1926,NA,NA,NA,NA,NA,43.63582,-85.97176,NA,"62-286",NA,NA
59070520,NA,NA,1926,NA,NA,NA,NA,NA,43.45665,-85.82398,NA,"62-115",NA,NA
59070521,NA,NA,1926,NA,NA,NA,NA,NA,43.75165,-85.86148,NA,"62-454",NA,NA
59070522,NA,NA,1926,NA,NA,NA,NA,NA,43.79165,-85.82509,NA,"62-437",NA,NA
59070523,NA,NA,1926,NA,NA,NA,NA,NA,43.72638,-85.90621,NA,"62-358",NA,NA
59070524,NA,"January",1926,NA,NA,NA,NA,NA,43.77054,-85.81009,NA,"62-438",NA,NA
59070525,NA,NA,1926,NA,NA,NA,NA,NA,43.49388,-85.88843,NA,"62-196",NA,NA
59070526,NA,NA,1926,NA,NA,NA,NA,NA,43.41138,-85.67843,NA,"62-73",NA,NA
59070527,NA,NA,1926,NA,NA,NA,NA,NA,43.78249,-85.84148,NA,"62-435",NA,NA
59070528,NA,NA,1926,NA,NA,NA,NA,NA,43.78249,-85.84148,NA,"62-435",NA,NA
